     2.11           OBSERVATION DATA    G (GPS)             RINEX VERSION / TYPE
teqc  2018Jun8                          20190204 12:52:39UTCPGM / RUN BY / DATE
Linux 2.6.32-573.12.1.x86_64|x86_64|gcc -static|Linux 64|=+ COMMENT
teqc  2018Jun8                          20190204 12:52:39UTCCOMMENT
     2.11           OBSERVATION DATA    M (MIXED)           COMMENT
teqc  2018Jun8                          20190204 12:52:38UTCCOMMENT
teqc  2016Nov7      IGN-RGP             20180625 14:03:12UTCCOMMENT
Linux 2.4.21-27.ELsmp|Opteron|gcc|Linux x86_64|=+           COMMENT
teqc  2016Nov7      IGN-RGP             20180625 14:03:11UTCCOMMENT
BIT 2 OF LLI FLAGS DATA COLLECTED UNDER A/S CONDITION       COMMENT
MLVL                                                        MARKER NAME
10092M001                                                   MARKER NUMBER
Automatic           IGN                                     OBSERVER / AGENCY
1830331             LEICA GR25          4.11                REC # / TYPE / VERS
5411118464          TRM57971.00     NONE                    ANT # / TYPE
  4201577.2090   189859.8560  4779064.5670                  APPROX POSITION XYZ
        0.0750        0.0000        0.0000                  ANTENNA: DELTA H/E/N
     1     1                                                WAVELENGTH FACT L1/2
    21    L1    L2    C1    P1    P2    D1    D2    S1    S2# / TYPES OF OBSERV
          L5    C5    D5    S5    L7    C7    D7    S7    L8# / TYPES OF OBSERV
          C8    D8    S8                                    # / TYPES OF OBSERV
    30.0000                                                 INTERVAL
DefaultJobName                                              COMMENT
DefaultUserDiscription                                      COMMENT
Project creator:                                            COMMENT
 SNR is mapped to RINEX snr flag value [0-9]                COMMENT
  L1 & L2: min(max(int(snr_dBHz/6), 0), 9)                  COMMENT
    18                                                      LEAP SECONDS
Forced Modulo Decimation to 30 seconds                      COMMENT
teqc_2018 edited: all GLONASS satellites excluded           COMMENT
teqc_2018 edited: all SBAS satellites excluded              COMMENT
teqc_2018 edited: all Galileo satellites excluded           COMMENT
  2018     6    25    13     0    0.0000000     GPS         TIME OF FIRST OBS
                                                            END OF HEADER
 18  6 25 13  0  0.0000000  0  9G05G10G16G20G21G26G27G29G31
 132820626.021 7 103496588.61845  25274919.360                    25274914.720
     -2550.617       -1987.496          43.900          30.500



 132827560.629 6 103501990.22845  25276244.600                    25276243.900
      3517.466        2740.889          41.000          32.200    99189415.906 7
  25276243.440        2626.486          42.700


 108305525.512 8  84393918.58547  20609850.020                    20609842.820
      1331.063        1037.191          49.000          47.050



 122285151.058 7  95287127.09545  23270082.560                    23270078.060
      3183.118        2480.353          42.950          34.650



 110676969.966 7  86241798.77747  21061114.400                    21061107.340
      -512.689        -399.499          47.950          47.800



 107042331.610 8  83409610.81248  20369472.020                    20369468.880
      -634.023        -494.045          50.650          49.400    79934216.487 8
  20369469.100        -473.467          53.000


 117679954.970 7  91698672.05447  22393744.600                    22393740.640
      2736.109        2132.033          46.050          42.250    87877894.320 8
  22393742.340        2043.196          50.600


 122546027.714 7  95490392.28146  23319730.760                    23319724.340
     -3011.057       -2346.280          46.400          37.350



 128147841.586 7  99855445.57746  24385726.940                    24385722.800
     -3549.500       -2765.847          44.250          36.400



 18  6 25 13  0 30.0000000  0  9G05G10G16G20G21G26G27G29G31
 132897335.143 6 103556361.90645  25289516.620                    25289511.640
     -2563.245       -1997.338          41.850          31.300



 132722004.103 6 103419738.55045  25256157.860                    25256156.880
      3519.973        2742.841          40.150          31.600    99110591.396 7
  25256156.480        2628.428          42.400


 108265826.893 8  84362984.60547  20602295.680                    20602288.420
      1315.604        1025.146          48.900          47.150



 122189766.525 7  95212801.53046  23251931.680                    23251926.680
      3176.156        2474.931          43.550          37.200



 110692569.526 8  86253954.29147  21064082.920                    21064075.900
      -527.188        -410.796          48.150          47.900



 107061614.101 8  83424636.11948  20373141.220                    20373138.240
      -651.361        -507.555          50.300          49.350    79948615.736 8
  20373138.520        -486.330          52.950


 117597973.387 7  91634790.34247  22378144.000                    22378140.120
      2729.553        2126.926          45.900          43.000    87816674.350 8
  22378141.720        2038.321          50.450


 122636413.875 7  95560822.99446  23336930.480                    23336924.540
     -3014.588       -2349.031          46.000          37.900



 128254348.514 7  99938437.88246  24405994.720                    24405990.680
     -3550.804       -2766.862          43.550          36.150



 18  6 25 13  1  0.0000000  0  9G05G10G16G20G21G26G27G29G31
 132974441.961 6 103616445.15145  25304189.380                    25304183.960
     -2576.893       -2007.970          41.700          30.800



 132616377.021 6 103337431.89645  25236057.540                    25236056.640
      3522.055        2744.462          41.150          31.300    99031714.229 7
  25236056.280        2630.031          44.000


 108226594.432 8  84332413.85647  20594829.960                    20594822.680
      1299.909        1012.917          49.150          46.550



 122094593.458 7  95138640.74045  23233820.980                    23233815.700
      3168.893        2469.271          44.000          35.950



 110708601.096 8  86266446.42847  21067133.660                    21067126.680
      -541.580        -422.009          48.600          47.600



 107081418.827 8  83440068.36348  20376909.840                    20376906.940
      -668.963        -521.270          50.650          49.000    79963404.969 8
  20376907.320        -499.522          53.000


 117516192.258 7  91571064.81947  22362581.560                    22362577.680
      2722.760        2121.633          46.550          42.750    87755604.077 8
  22362579.240        2033.080          50.500


 122726904.327 7  95631334.95145  23354150.020                    23354144.480
     -3017.991       -2351.683          46.550          34.750



 128360901.836 7 100021466.32846  24426271.120                    24426267.120
     -3552.631       -2768.287          42.600          36.950



 18  6 25 13  1 30.0000000  0  9G05G10G16G20G21G26G27G29G31
 133051938.313 6 103676831.88444  25318936.420                    25318931.240
     -2589.513       -2017.799          41.900          28.000



 132510676.423 6 103255067.97045  25215943.200                    25215942.380
      3524.736        2746.555          41.850          32.950    98952782.169 7
  25215942.240        2631.978          44.700


 108187823.966 8  84302203.11147  20587452.120                    20587444.800
      1284.775        1001.125          48.850          46.800



 121999629.129 7  95064642.61945  23215749.980                    23215744.160
      3161.920        2463.837          43.100          35.700



 110725058.538 8  86279270.42047  21070265.440                    21070258.400
      -555.363        -432.749          48.100          47.850



 107101740.241 8  83455903.22948  20380776.780                    20380774.020
      -685.786        -534.378          50.250          49.300    79978580.045 8
  20380774.420        -512.101          53.000


 117434606.781 7  91507491.76647  22347056.340                    22347052.500
      2716.492        2116.750          46.200          43.200    87694679.883 8
  22347053.920        2028.561          50.550


 122817492.591 7  95701923.15846  23371388.260                    23371382.880
     -3021.037       -2354.056          45.900          36.950



 128467493.165 7 100104524.38045  24446554.820                    24446550.860
     -3553.551       -2769.001          42.350          35.250



 18  6 25 13  2  0.0000000  0  9G05G10G16G20G21G26G27G29G31
 133129823.191 7 103737521.39145  25333757.480                    25333752.140
     -2602.383       -2027.831          43.800          30.650



 132404906.616 6 103172650.09045  25195815.700                    25195815.060
      3526.945        2748.277          40.500          33.500    98873798.411 7
  25195815.020        2633.725          43.800


 108149519.077 8  84272355.15047  20580162.920                    20580155.520
      1269.252         989.028          49.050          46.950



 121904878.291 7  94990810.86246  23197719.680                    23197713.660
      3155.255        2458.644          43.950          36.600



 110741942.034 8  86292426.40047  21073478.300                    21073471.160
      -569.661        -443.892          48.250          47.950



 107122580.172 8  83472142.12648  20384742.440                    20384739.680
      -703.061        -547.839          50.550          49.000    79994142.316 8
  20384740.140        -525.062          53.000


 117353219.590 7  91444073.21047  22331568.860                    22331564.900
      2709.827        2111.557          46.800          42.800    87633903.769 8
  22331566.300        2023.550          50.550


 122908179.729 7  95772588.42146  23388645.460                    23388640.140
     -3024.413       -2356.687          46.150          36.550



 128574121.392 7 100187611.19146  24466845.680                    24466841.520
     -3554.643       -2769.855          43.300          36.400



 18  6 25 13  2 30.0000000  0  9G05G10G16G20G21G26G27G29G31
 133208096.450 6 103798513.49444  25348652.480                    25348647.040
     -2615.508       -2038.059          40.950          29.550



 132299072.588 6 103090182.16945  25175675.680                    25175675.140
      3529.231        2750.054          40.900          34.400    98794766.704 7
  25175675.460        2635.466          44.700


 108111683.972 8  84242873.25347  20572963.080                    20572955.680
      1253.609         976.839          49.100          46.800



 121810346.443 7  94917149.72946  23179731.180                    23179724.760
      3147.706        2452.761          44.800          36.650



 110759253.085 8  86305915.53047  21076772.540                    21076765.240
      -583.897        -454.984          48.400          47.550



 107143940.903 8  83488786.83948  20388807.240                    20388804.480
      -720.438        -561.380          50.450          49.300    80010093.495 8
  20388805.020        -537.937          52.950


 117272033.796 7  91380811.56647  22316119.820                    22316115.680
      2703.109        2106.320          47.050          43.050    87573278.030 8
  22316116.900        2018.604          50.500


 122998967.303 7  95843331.95546  23405921.580                    23405916.380
     -3027.687       -2359.237          46.250          37.900



 128680786.284 7 100270726.59945  24487143.520                    24487139.220
     -3555.872       -2770.812          44.200          35.300



 18  6 25 13  3  0.0000000  0  9G05G10G16G20G21G26G27G29G31
 133286750.731 6 103859802.54045  25363620.120                    25363615.200
     -2627.932       -2047.746          40.900          33.750



 132193171.544 6 103007662.08245  25155523.040                    25155522.900
      3531.374        2751.725          40.600          35.700    98715684.978 7
  25155523.160        2637.196          45.450


 108074314.361 8  84213754.08347  20565851.900                    20565844.520
      1238.150         964.791          49.000          47.100



 121716030.935 7  94843657.18745  23161783.700                    23161776.920
      3140.543        2447.178          44.250          35.650



 110776984.897 8  86319732.52847  21080146.820                    21080139.360
      -597.727        -465.762          48.300          47.550



 107165817.122 8  83505833.23148  20392970.220                    20392967.380
      -737.517        -574.689          50.600          49.000    80026429.639 8
  20392967.900        -550.821          53.000


 117191044.892 7  91317703.35447  22300708.120                    22300703.940
      2696.657        2101.292          46.750          42.950    87512799.356 8
  22300705.020        2013.606          50.650


 123089848.874 7  95914148.70246  23423215.540                    23423210.940
     -3030.518       -2361.445          46.350          36.650



 128787479.978 7 100353864.44946  24507446.860                    24507442.360
     -3556.644       -2771.413          43.600          36.550



 18  6 25 13  3 30.0000000  0  9G05G10G16G20G21G26G27G29G31
 133365787.442 6 103921389.57945  25378660.600                    25378655.760
     -2640.850       -2057.814          41.300          31.550



 132087210.241 6 102925094.98745  25135359.120                    25135358.680
      3533.210        2753.153          40.750          32.700    98636558.239 7
  25135359.200        2638.421          45.200


 108037416.143 8  84185002.24347  20558830.400                    20558823.060
      1222.105         952.291          49.150          46.900



 121621939.125 7  94770338.95546  23143878.600                    23143871.740
      3132.631        2441.014          44.000          36.900



 110795140.710 8  86333879.92847  21083601.740                    21083594.240
      -612.114        -476.972          48.250          47.650



 107188212.961 8  83523284.53448  20397232.000                    20397229.160
      -755.082        -588.375          50.450          49.100    80043153.781 8
  20397229.720        -563.794          52.950


 117110257.873 7  91254752.45747  22285334.780                    22285330.680
      2689.620        2095.809          46.750          42.600    87452471.403 8
  22285331.700        2008.532          50.600


 123180828.145 7  95985041.60146  23440528.040                    23440524.120
     -3034.246       -2364.350          45.950          37.700



 128894203.831 7 100437025.76845  24527755.880                    24527751.100
     -3557.672       -2772.218          43.200          33.700



 18  6 25 13  4  0.0000000  0  9G05G10G16G20G21G26G27G29G31
 133445203.440 6 103983272.17544  25393773.320                    25393768.600
     -2653.372       -2067.564          40.900          28.450



 131981190.705 6 102842482.51745  25115184.020                    25115183.420
      3535.263        2754.756          41.000          33.300    98557387.992 7
  25115183.920        2639.810          44.950


 108000990.494 8  84156618.62347  20551898.840                    20551891.480
      1206.592         940.202          49.150          47.250



 121528073.130 7  94697196.67845  23126016.520                    23126009.820
      3125.413        2435.389          45.200          35.300



 110813718.480 8  86348356.11247  21087136.880                    21087129.440
      -626.052        -487.832          48.350          47.250



 107211127.895 8  83541140.30248  20401592.560                    20401589.760
      -772.329        -601.815          50.800          48.900    80060265.563 8
  20401590.300        -576.691          52.950


 117029673.013 7  91191959.09447  22269999.800                    22269995.980
      2683.032        2090.677          47.350          42.800    87392294.442 8
  22269997.040        2003.559          50.700


 123271903.459 7  96056009.31346  23457858.900                    23457855.540
     -3037.148       -2366.610          45.650          37.900



 129000954.824 7 100520208.24745  24548070.080                    24548065.220
     -3558.523       -2772.883          43.100          34.200



 18  6 25 13  4 30.0000000  0  9G05G10G16G20G21G26G27G29G31
 133524996.716 6 104045448.73945  25408957.740                    25408953.300
     -2665.726       -2077.190          41.900          33.950



 131875115.696 6 102759826.83645  25094998.380                    25094997.920
      3536.717        2755.890          41.150          35.050    98478176.308 7
  25094998.260        2641.175          45.600


 107965039.028 8  84128604.50047  20545057.500                    20545050.140
      1190.596         927.737          49.100          46.950



 121434436.614 7  94624233.21146  23108198.100                    23108191.380
      3117.268        2429.041          45.000          37.250



 110832717.417 8  86363160.48147  21090752.200                    21090744.860
      -640.105        -498.783          48.050          47.250



 107234561.982 8  83559400.61848  20406051.980                    20406049.120
      -789.559        -615.240          50.500          49.050    80077765.041 8
  20406049.620        -589.687          52.950


 116949291.310 7  91129324.03447  22254703.640                    22254699.860
      2676.162        2085.323          47.050          43.050    87332269.187 8
  22254701.140        1998.431          50.800


 123363074.165 7  96127051.37246  23475207.880                    23475204.740
     -3040.374       -2369.124          44.850          36.650



 129107730.321 7 100603409.81245  24568388.840                    24568383.980
     -3559.529       -2773.664          42.800          34.200



 18  6 25 13  5  0.0000000  0  9G05G10G16G20G21G26G27G29G31
 133605162.243 6 104107915.37546  25424212.540                    25424208.280
     -2678.789       -2087.370          40.300          36.200



 131768985.496 6 102677128.13445  25074802.300                    25074801.880
      3538.132        2756.992          40.850          34.500    98398923.413 7
  25074802.100        2642.323          44.500


 107929561.154 8  84100959.41547  20538306.320                    20538298.840
      1174.484         915.183          48.950          46.950



 121341029.914 7  94551448.83346  23090423.540                    23090416.640
      3109.546        2423.024          45.450          36.200



 110852134.182 8  86378290.42747  21094447.000                    21094439.740
      -654.341        -509.877          48.100          47.500



 107258512.905 8  83578063.66248  20410609.760                    20410606.820
      -807.104        -628.913          50.550          49.000    80095650.443 8
  20410607.340        -602.659          52.950


 116869111.279 7  91066846.12147  22239445.880                    22239442.100
      2669.190        2079.890          47.100          42.450    87272394.513 8
  22239443.500        1993.315          50.700


 123454337.202 7  96198165.37646  23492574.580                    23492571.600
     -3043.851       -2371.832          44.300          37.750



 129214525.564 7 100686626.76446  24588711.600                    24588706.540
     -3560.445       -2774.376          43.800          36.200



 18  6 25 13  5 30.0000000  0  9G05G10G16G20G21G26G27G29G31
 133685699.324 6 104170671.55545  25439537.920                    25439534.120
     -2690.970       -2096.859          39.900          32.300



 131662804.677 6 102594389.97545  25054596.640                    25054596.220
      3539.631        2758.159          41.050          32.900    98319632.736 7
  25054596.340        2643.228          44.800


 107894560.114 8  84073685.87947  20531645.800                    20531638.360
      1158.304         902.574          49.150          46.850



 121247857.841 7  94478847.29746  23072693.500                    23072686.700
      3101.300        2416.600          45.050          38.500



 110871969.395 8  86393746.43947  21098221.500                    21098214.280
      -668.524        -520.929          48.200          47.250



 107282982.323 8  83597130.73348  20415266.180                    20415263.180
      -824.573        -642.525          50.400          49.000    80113923.068 8
  20415263.640        -615.898          52.900


 116789135.501 7  91004527.36747  22224226.940                    22224223.060
      2662.041        2074.317          47.100          42.250    87212672.394 8
  22224224.640        1987.843          50.750


 123545693.479 7  96269352.02046  23509958.980                    23509955.840
     -3047.130       -2374.390          44.400          37.000



 129321339.415 7 100769858.20545  24609037.960                    24609032.860
     -3561.179       -2774.949          44.200          34.000



 18  6 25 13  6  0.0000000  0  9G05G10G16G20G21G26G27G29G31
 133766606.349 6 104233715.99845  25454933.820                    25454930.400
     -2703.219       -2106.406          41.650          34.300



 131556576.524 6 102511614.91545  25034382.060                    25034381.660
      3541.447        2759.570          41.750          34.700    98240306.665 7
  25034381.540        2644.689          44.850


 107860038.010 8  84046785.54547  20525076.420                    20525069.020
      1142.440         890.214          49.250          47.000



 121154923.994 7  94406431.37246  23055008.720                    23055002.040
      3093.651        2410.641          45.450          37.250



 110892222.241 8  86409527.87447  21102075.500                    21102068.360
      -682.287        -531.651          48.300          47.700



 107307970.750 8  83616602.22248  20420021.300                    20420018.340
      -841.862        -655.996          50.550          49.100    80132583.236 8
  20420018.720        -628.587          52.950


 116709365.429 7  90942368.89847  22209047.160                    22209043.200
      2655.303        2069.069          47.050          42.900    87153103.873 8
  22209044.900        1982.845          50.950


 123637143.038 7  96340611.37846  23527361.260                    23527358.220
     -3050.038       -2376.653          44.050          36.300



 129428169.956 7 100853102.65945  24629367.520                    24629362.140
     -3561.489       -2775.190          44.600          35.400



 18  6 25 13  6 30.0000000  0  9G05G10G16G20G21G26G27G29G31
 133847877.709 7 104297044.30245  25470399.340                    25470395.720
     -2715.051       -2115.622          42.550          32.250



 131450300.612 6 102428802.66045  25014158.520                    25014157.980
      3543.173        2760.920          41.900          34.250    98160944.938 7
  25014157.560        2645.936          44.300


 107825993.541 8  84020257.40647  20518597.980                    20518590.620
      1126.765         878.000          49.250          47.350



 121062228.429 7  94334201.11746  23037369.280                    23037362.600
      3085.766        2404.496          45.950          37.800



 110912888.719 8  86425631.63747  21106008.220                    21106001.080
      -695.744        -542.137          48.200          47.950



 107333475.153 8  83636475.77948  20424874.560                    20424871.680
      -858.779        -669.178          50.300          49.400    80151628.723 8
  20424872.120        -641.185          52.900


 116629799.008 7  90880369.10647  22193906.220                    22193902.120
      2648.792        2063.995          47.100          43.600    87093687.411 8
  22193903.900        1978.051          50.800


 123728682.214 7  96411940.54646  23544780.700                    23544777.720
     -3052.763       -2378.777          44.650          36.800



 129535011.693 7 100936355.85845  24649699.080                    24649693.840
     -3561.560       -2775.244          44.250          34.850



 18  6 25 13  7  0.0000000  0  9G05G10G16G20G21G26G27G29G31
 133929515.352 6 104360658.06845  25485934.640                    25485930.240
     -2727.160       -2125.058          38.250          33.300



 131343984.445 7 102345958.98145  24993927.240                    24993926.420
      3544.467        2761.928          42.000          34.600    98081553.114 7
  24993926.040        2646.802          44.700


 107792433.021 8  83994106.36047  20512211.660                    20512204.260
      1110.594         865.397          49.050          47.650



 120969778.787 7  94262162.50046  23019776.660                    23019770.020
      3077.449        2398.014          45.800          38.750



 110933972.612 8  86442060.64947  21110020.360                    21110013.200
      -709.760        -553.060          48.250          47.650



 107359500.219 8  83656755.04348  20429826.940                    20429824.140
      -876.170        -682.730          50.450          49.050    80171063.019 8
  20429824.480        -654.270          52.950


 116550441.869 7  90818532.40747  22178805.100                    22178800.940
      2641.782        2058.533          47.100          42.700    87034427.249 8
  22178802.640        1972.789          50.900


 123820314.604 7  96483342.35946  23562218.020                    23562214.700
     -3055.835       -2381.172          44.900          37.850



 129641866.654 7 101019619.33845  24670033.240                    24670027.740
     -3562.045       -2775.624          44.200          33.400



 18  6 25 13  7 30.0000000  0  9G05G10G16G20G21G26G27G29G31
 134011512.148 7 104424551.60845  25501538.180                    25501533.520
     -2739.329       -2134.539          42.750          32.350



 131237625.115 6 102263081.69645  24973687.680                    24973687.020
      3545.791        2762.959          41.850          35.650    98002129.049 7
  24973686.420        2647.820          44.650


 107759352.515 8  83968329.34847  20505916.660                    20505909.220
      1094.491         852.852          49.450          47.150



 120877572.605 7  94190313.61146  23002230.320                    23002223.700
      3069.254        2391.631          45.750          37.600



 110955466.609 8  86458809.22247  21114110.520                    21114103.380
      -723.432        -563.712          48.450          47.650



 107386040.248 8  83677435.58348  20434877.320                    20434874.640
      -893.341        -696.109          50.400          49.050    80190881.863 8
  20434874.940        -667.158          52.900


 116471289.253 7  90756855.07547  22163742.860                    22163738.780
      2634.894        2053.167          47.100          43.050    86975319.806 8
  22163740.300        1967.605          50.750


 123912033.654 7  96554811.70446  23579671.860                    23579668.180
     -3058.936       -2383.588          45.650          36.650



 129748726.988 7 101102887.02645  24690368.340                    24690362.380
     -3562.099       -2775.663          43.800          32.850



 18  6 25 13  8  0.0000000  0 10G05G08G10G16G20G21G26G27G29G31
 134093870.562 6 104488726.96545  25517210.560                    25517205.660
     -2751.796       -2144.257          40.050          31.750



 134569056.367 5 104858973.54755  25607639.120                    25607632.400
      3215.453        2505.548          35.550          31.800   100489867.940 6
  25607636.160        2400.852          37.750


 131131231.210 7 102180177.44046  24953441.480                    24953441.020
      3546.629        2763.611          42.400          36.250    97922679.173 7
  24953440.420        2648.452          45.150


 107726759.151 8  83942931.92147  20499714.320                    20499706.880
      1077.846         839.880          49.350          47.200



 120785618.731 7  94118661.30346  22984731.920                    22984725.580
      3060.618        2384.899          46.100          37.050



 110977375.866 8  86475881.36447  21118279.800                    21118272.600
      -737.606        -574.759          48.450          47.350



 107413100.906 8  83698521.80048  20440026.840                    20440024.100
      -911.051        -709.910          50.650          48.450    80211089.491 8
  20440024.460        -680.376          52.900


 116392347.879 7  90695342.34447  22148720.800                    22148716.860
      2627.434        2047.353          46.850          43.550    86916370.113 8
  22148718.180        1962.081          50.800


 124003844.652 7  96626352.68946  23597143.320                    23597139.240
     -3062.220       -2386.147          46.150          36.700



 129855595.699 7 101186161.23245  24710704.860                    24710699.000
     -3562.851       -2776.250          44.000          33.500



 18  6 25 13  8 30.0000000  0  9G05G10G16G20G21G26G27G29G31
 134176581.814 7 104553177.26545  25532950.120                    25532944.840
     -2763.207       -2153.156          43.650          32.600



 131024798.835 6 102097243.22746  24933187.940                    24933187.540
      3547.948        2764.639          41.200          36.800    97843200.550 7
  24933186.940        2649.531          44.750


 107694648.270 8  83917910.46047  20493603.820                    20493596.320
      1062.226         827.708          48.950          47.150



 120693913.475 7  94047202.71546  22967281.000                    22967274.520
      3052.419        2378.512          45.900          37.350



 110999692.404 8  86493270.87247  21122526.580                    21122519.300
      -750.863        -585.088          48.450          47.600



 107440675.509 8  83720008.49748  20445274.160                    20445271.400
      -928.095        -723.190          50.300          48.950    80231680.904 8
  20445271.720        -693.003          52.900


 116313612.071 7  90633989.78747  22133737.880                    22133734.040
      2620.764        2042.154          46.750          44.000    86857573.915 8
  22133735.120        1957.095          50.850


 124095740.264 7  96697959.62846  23614630.880                    23614626.420
     -3064.643       -2388.033          45.650          37.150



 129962463.624 7 101269434.80745  24731041.220                    24731035.400
     -3562.392       -2775.895          44.300          33.350



 18  6 25 13  9  0.0000000  0 10G05G08G10G16G20G21G26G27G29G31
 134259648.528 6 104617904.54544  25548757.120                    25548751.340
     -2775.254       -2162.535          41.600          25.950



 134376136.731 5                  25570929.040
      3213.395                          35.850                   100345810.894 6
  25570927.220        2400.104          38.600


 130918336.055 6 102014285.28646  24912928.680                    24912928.520
      3548.810        2765.309          41.850          36.550    97763699.219 7
  24912927.800        2650.303          44.800


 107663026.325 8  83893269.98747  20487586.300                    20487578.860
      1045.542         814.708          49.150          47.150



 120602465.387 7  93975944.51046  22949878.780                    22949872.480
      3043.693        2371.710          45.650          37.750



 111022420.280 8  86510980.90347  21126851.680                    21126844.280
      -764.729        -595.894          48.600          47.350



 107468769.181 8  83741899.65648  20450620.300                    20450617.440
      -945.473        -736.732          50.700          48.750    80252659.925 8
  20450617.800        -705.942          52.900


 116235087.966 7  90572802.19747  22118795.220                    22118791.360
      2613.728        2036.672          47.050          43.500    86798935.825 8
  22118792.360        1951.776          50.750


 124187725.435 7  96769636.34445  23632135.480                    23632130.500
     -3067.849       -2390.533          45.550          35.900



 130069333.455 7 101352709.84945  24751377.880                    24751372.480
     -3562.512       -2775.986          45.050          34.650



 18  6 25 13  9 30.0000000  0 10G05G08G10G16G20G21G26G27G29G31
 134343065.765 7 104682905.00045  25564630.920                    25564625.380
     -2786.453       -2171.264          43.850          32.900



 134279709.671 6 104633504.24545  25552578.220                    25552577.700
      3213.725        2504.203          38.650          32.850   100273803.801 6
  25552577.120        2400.067          41.900


 130811842.664 6 101931303.53545  24892663.520                    24892663.440
      3550.298        2766.472          41.950          35.050    97684175.041 7
  24892662.920        2651.271          45.850


 107631891.851 8  83869009.36447  20481661.600                    20481654.240
      1029.584         802.273          49.000          47.700



 120511274.236 7  93904886.55046  22932525.380                    22932519.440
      3035.372        2365.227          44.850          39.350



 111045555.521 8  86529008.37447  21131254.240                    21131246.800
      -777.899        -606.155          48.400          47.700



 107497378.900 8  83764192.93548  20456064.600                    20456061.620
      -962.268        -749.819          50.550          48.900    80274024.320 8
  20456062.020        -718.583          52.950


 116156773.583 7  90511778.04047  22103892.320                    22103888.560
      2606.915        2031.363          46.650          43.450    86740454.341 8
  22103889.580        1946.711          50.900


 124279796.068 7  96841379.63946  23649656.180                    23649651.020
     -3070.398       -2392.520          45.050          36.550



 130176199.924 7 101435982.29246  24771713.860                    24771708.640
     -3562.076       -2775.650          44.750          36.050



 18  6 25 13 10  0.0000000  0  9G05G10G16G20G21G26G27G29G31
 134426833.204 6 104748178.37045  25580571.320                    25580566.120
     -2798.276       -2180.466          41.600          31.350



 130705323.854 7 101848301.96046  24872393.440                    24872393.440
      3550.764        2766.832          42.300          37.650    97604631.910 7
  24872393.240        2651.461          46.100


 107601249.043 8  83845131.84747  20475830.500                    20475823.140
      1013.134         789.454          49.050          47.750



 120420345.779 7  93834033.26446  22915222.020                    22915216.380
      3026.273        2358.137          45.150          38.900



 111069099.144 8  86547354.05047  21135734.440                    21135727.020
      -791.865        -617.038          48.500          47.800



 107526506.894 8  83786890.05948  20461607.580                    20461604.420
      -979.870        -763.535          50.800          48.800    80295775.726 8
  20461604.940        -731.721          52.900


 116078672.247 7  90450919.89947  22089029.920                    22089026.320
      2599.489        2025.578          46.750          43.950    86682131.953 8
  22089027.500        1941.231          50.950


 124371954.049 7  96913190.98046  23667193.320                    23667188.120
     -3073.721       -2395.110          44.850          37.550



 130283062.925 7 101519252.02045  24792049.160                    24792044.180
     -3562.180       -2775.729          44.500          34.450



 18  6 25 13 10 30.0000000  0 10G05G08G10G16G20G21G26G27G29G31
 134510942.233 7 104813717.83045  25596576.760                    25596571.700
     -2809.804       -2189.457          44.050          30.400



 134086907.895 6 104483287.71845  25515891.580                    25515890.160
      3212.462        2503.210          41.750          35.300   100129830.831 7
  25515890.020        2398.744          46.050


 130598776.171 6 101765277.89546  24852117.780                    24852118.040
      3551.757        2767.608          41.750          37.100    97525067.209 7
  24852118.000        2652.201          46.650


 107571093.053 8  83821633.66947  20470092.060                    20470084.720
       996.754         776.690          49.050          47.200



 120329676.561 7  93763381.97146  22897968.040                    22897962.360
      3017.627        2351.399          45.200          38.850



 111093044.152 8  86566012.49447  21140290.920                    21140283.580
      -805.048        -627.311          48.350          47.650



 107556146.718 8  83809986.01048  20467247.940                    20467244.640
      -996.783        -776.715          50.750          48.650    80317909.346 8
  20467245.200        -744.460          52.900


 116000778.606 7  90390223.57647  22074207.180                    22074203.560
      2592.708        2020.292          47.600          43.800    86623964.653 8
  22074204.860        1936.048          50.900


 124464192.302 7  96985064.88346  23684745.780                    23684740.180
     -3076.249       -2397.079          44.900          36.350



 130389913.470 7 101602512.04145  24812382.060                    24812377.300
     -3561.627       -2775.299          44.650          33.000



 18  6 25 13 11  0.0000000  0 10G05G08G10G16G20G21G26G27G29G31
 134595400.537 6 104879495.49045  25612648.380                    25612643.820
     -2820.750       -2197.991          41.800          30.950



 133990544.993 5 104408199.82145  25497553.340                    25497552.500
      3211.313        2502.324          35.300          31.950   100057871.563 7
  25497552.840        2398.675          43.400


 130492212.481 6 101682241.39546  24831839.020                    24831839.660
      3552.648        2768.303          41.800          37.750    97445490.576 7
  24831839.500        2653.038          46.800


 107541435.593 8  83798523.97547  20464448.380                    20464441.140
       980.365         763.921          48.900          47.500



 120239279.954 7  93692943.14046  22880765.780                    22880760.380
      3008.980        2344.662          44.250          38.100



 111117399.029 8  86584990.33547  21144925.380                    21144918.100
      -818.461        -637.761          48.200          47.750



 107586308.301 8  83833488.54248  20472987.600                    20472984.120
     -1013.781        -789.959          50.700          48.850    80340432.590 8
  20472984.760        -757.007          52.850


 115923103.704 7  90329697.71547  22059426.120                    22059422.420
      2585.722        2014.850          47.900          44.400    86565960.691 8
  22059423.840        1930.979          50.900


 124556520.393 7  97057008.80546  23702315.300                    23702309.380
     -3078.831       -2399.089          44.950          37.150



 130496759.145 7 101685768.33045  24832714.060                    24832709.180
     -3561.218       -2774.977          44.150          31.800



 18  6 25 13 11 30.0000000  0 11G05G07G08G10G16G20G21G26G27G29G31
 134680202.821 6 104945575.24544  25628785.460                    25628781.120
     -2832.389       -2207.048          39.900          28.900



 136298320.964 5 106206463.89645  25936707.540                    25936697.700
      2971.355        2315.375          35.150          34.250



 133894206.443 6 104333130.81745  25479220.680                    25479220.120
      3210.409        2501.615          37.700          34.200    99985930.503 7
  25479220.200        2397.785          44.000


 130385632.584 6 101599192.22746  24811557.240                    24811558.020
      3552.738        2768.371          41.150          37.500    97365901.812 7
  24811557.840        2653.121          46.700


 107512275.188 8  83775801.57747  20458899.260                    20458892.140
       963.651         750.897          48.700          47.900



 120149156.038 7  93622716.75746  22863615.580                    22863610.240
      2999.434        2337.223          44.900          38.100



 111142159.450 8  86604284.16547  21149637.060                    21149629.820
      -832.245        -648.502          48.400          47.900



 107616988.491 8  83857395.16948  20478825.900                    20478822.320
     -1031.364        -803.660          50.600          48.900    80363343.114 8
  20478823.000        -770.144          52.900


 115845645.516 8  90269340.69847  22044686.420                    22044682.540
      2578.209        2008.995          48.350          43.850    86508118.565 8
  22044684.080        1925.336          51.050


 124648934.356 7  97129019.62046  23719900.960                    23719894.740
     -3082.137       -2401.667          45.750          36.600



 130603594.710 7 101769016.67845  24853044.200                    24853039.620
     -3560.947       -2774.766          44.500          32.300



 18  6 25 13 12  0.0000000  0 10G05G08G10G16G20G21G26G27G29G31
 134765339.690 6                  25644986.380
     -2843.168                          37.100



 133797875.954 6 104258055.74245  25460890.800                    25460890.400
      3210.676        2501.833          38.350          34.950    99914004.657 7
  25460891.000        2397.410          45.900


 130279033.015 6 101516127.74945  24791271.760                    24791272.560
      3553.814        2769.212          40.600          35.000    97286298.385 7
  24791272.520        2653.787          45.950


 107483606.894 8  83753462.65547  20453443.800                    20453436.760
       947.611         738.399          48.700          47.900



 120059301.258 7  93552700.11746  22846516.760                    22846511.480
      2990.979        2330.637          44.650          38.550



 111167318.311 8  86623888.48147  21154424.640                    21154417.460
      -845.076        -658.500          48.350          47.750



 107648180.708 8  83881700.78548  20484761.580                    20484758.040
     -1048.062        -816.672          50.450          49.050    80386635.997 8
  20484758.620        -782.651          52.850


 115768398.597 8  90209148.31647  22029986.960                    22029982.880
      2571.609        2003.853          48.550          43.800    86450434.213 8
  22029984.500        1920.339          51.050


 124741427.544 7  97201092.16646  23737501.720                    23737495.780
     -3084.188       -2403.268          45.650          37.400



 130710411.230 7 101852250.19145  24873370.760                    24873366.360
     -3559.970       -2774.008          43.600          34.350



 18  6 25 13 12 30.0000000  0 11G05G07G08G10G16G20G21G26G27G29G31
 134850766.385 6 105078541.14844  25661250.840                    25661246.740
     -2855.263       -2224.875          41.700          28.050



                                  25902890.340
      2952.801                          39.750



 133701571.673 6 104183083.64045  25442566.340                    25442565.620
      3209.412        2500.844          40.600          33.650    99842091.174 7
  25442566.120        2396.575          46.700


 130172416.674 6 101433050.20346  24770983.180                    24770984.220
      3553.833        2769.224          41.900          36.750    97206682.428 7
  24770983.960        2653.799          46.450


 107455432.573 8  83731508.65147  20448082.400                    20448075.360
       930.664         725.192          49.000          47.600



 119969718.837 7  93482895.69846  22829469.360                    22829464.540
      2980.952        2322.821          44.250          37.900



 111192874.736 8  86643802.58847  21159287.960                    21159280.680
      -858.721        -669.133          48.850          47.500



 107679884.891 8  83906405.33948  20490794.620                    20490791.200
     -1065.642        -830.370          50.750          48.800    80410311.191 8
  20490791.660        -795.778          52.900


 115691363.986 8  90149121.38147  22015327.840                    22015323.680
      2563.898        1997.844          48.800          43.600    86392908.402 8
  22015325.260        1914.638          51.300


 124833999.269 7  97273225.92046  23755117.520                    23755111.640
     -3087.408       -2405.774          45.400          37.100



 130817206.444 7 101935467.10645  24893693.200                    24893689.380
     -3560.002       -2774.031          42.700          31.300



 18  6 25 13 13  0.0000000  0 11G05G07G08G10G16G20G21G26G27G29G31
 134936575.522 6 105145405.42545  25677579.740                    25677575.860
     -2865.669       -2232.980          41.200          30.600



 136032161.952 6                  25886061.480
      2943.479                          37.950



 133605299.849 6 104108066.63645  25424245.840                    25424244.660
      3209.119        2500.616          38.250          34.100    99770199.922 7
  25424245.860        2396.231          44.000


 130065794.929 7 101349968.46946  24750693.640                    24750694.740
      3554.438        2769.697          42.350          36.000    97127062.450 7
  24750694.380        2654.245          46.300


 107427762.050 8  83709947.20448  20442816.920                    20442809.840
       914.190         712.356          48.950          48.150



 119880420.397 7  93413312.56046  22812476.140                    22812471.440
      2972.271        2316.058          45.050          38.550



 111218835.644 8  86664031.86547  21164228.300                    21164220.900
      -871.759        -679.292          48.850          47.750



 107712109.276 8  83931515.23548  20496926.680                    20496923.340
     -1082.362        -843.399          50.650          48.800    80434374.841 8
  20496923.760        -808.235          52.850


 115614551.159 8  90089267.25547  22000710.820                    22000706.660
      2557.197        1992.623          48.650          43.600    86335548.207 8
  22000708.220        1909.615          51.250


 124926657.292 7  97345426.90845  23772749.720                    23772743.920
     -3089.752       -2407.600          45.950          35.350



 130923986.038 7 102018671.82245  24914012.780                    24914009.240
     -3558.618       -2772.954          43.500          34.000



 18  6 25 13 13 30.0000000  0 11G05G07G08G10G16G20G21G26G27G29G31
 135022727.593 6 105212492.42355  25693971.420                    25693961.440
     -2877.944       -2242.554          36.300          30.650



 135943999.730 6 105930402.20444  25869283.620                    25869280.320
      2933.322        2285.705          37.700          29.250



 133509048.629 6 104033065.69145  25405930.020                    25405929.560
      3207.389        2499.265          38.900          35.700    99698324.001 7
  25405929.520        2395.114          44.800


 129959161.799 6 101266877.84845  24730401.980                    24730402.920
      3553.804        2769.203          41.700          35.400    97047433.969 7
  24730402.640        2653.844          46.750


 107400587.883 8  83688772.52347  20437645.880                    20437638.780
       896.900         698.883          48.900          47.850



 119791400.094 7  93343946.10846  22795536.260                    22795531.440
      2962.139        2308.160          44.900          39.100



 111245190.779 8  86684568.32647  21169243.540                    21169236.160
      -885.698        -690.154          48.700          47.700



 107744844.868 8  83957023.45948  20503155.960                    20503152.800
     -1100.417        -857.469          50.550          48.800    80458820.231 8
  20503153.100        -821.779          52.850


 115537952.306 8  90029579.85147  21986134.460                    21986130.260
      2548.954        1986.198          48.650          43.650    86278347.791 8
  21986131.920        1903.442          51.250


 125019392.209 7  97417687.81446  23790396.860                    23790390.860
     -3093.169       -2410.264          46.150          36.900



 131030739.356 7 102101856.04845  24934327.300                    24934323.940
     -3558.830       -2773.116          43.900          31.750



 18  6 25 13 14  0.0000000  0 11G05G07G08G10G16G20G21G26G27G29G31
 135109193.797 6 105279852.72444  25710425.200                    25710422.120
     -2887.643       -2250.098          37.300          27.200



 135856119.990 6 105861924.52645  25852560.520                    25852556.960
      2924.325        2278.695          40.850          34.100



 133412823.139 6 103958084.80945  25387618.520                    25387617.920
      3206.902        2498.879          38.050          33.000    99626467.377 7
  25387618.820        2394.991          45.700


 129852524.275 6 101183783.82145  24710109.380                    24710110.280
      3554.593        2769.820          41.600          35.650    96967802.231 7
  24710110.020        2654.360          46.700


 107373916.234 8  83667989.43447  20432570.540                    20432563.380
       880.687         686.249          48.950          47.750



 119702665.331 7  93274802.19646  22778650.480                    22778645.700
      2953.013        2301.052          44.500          39.050



 111271943.179 8  86705414.36647  21174334.400                    21174326.940
      -898.268        -699.948          48.600          47.700



 107778095.527 8  83982933.06448  20509483.260                    20509480.220
     -1116.933        -870.338          50.300          49.000    80483650.257 8
  20509480.560        -834.130          52.850


 115461572.523 8  89970063.17647  21971599.880                    21971595.620
      2542.259        1980.982          48.650          44.200    86221310.983 8
  21971597.340        1898.395          51.300


 125112207.586 7  97490011.41745  23808059.280                    23808053.080
     -3095.199       -2411.845          46.200          35.900



 131137467.744 7 102185020.89545  24954637.120                    24954633.780
     -3557.170       -2771.825          43.600          32.850



 18  6 25 13 14 30.0000000  0 11G05G07G08G10G16G20G21G26G27G29G31
 135195988.249 7 105347551.70444  25726941.680                    25726938.660
     -2898.557       -2258.628          42.300          28.150



 135768526.231 6 105793669.70944  25835891.600                    25835889.000
      2915.067        2271.485          39.200          28.550



 133316624.699 6 103883125.04145  25369312.460                    25369311.900
      3206.147        2498.299          38.650          35.450    99554630.910 7
  25369312.760        2394.082          45.550


 129745886.550 6 101100689.60045  24689816.740                    24689817.620
      3554.628        2769.844          41.350          35.750    96888170.328 7
  24689817.360        2654.284          46.700


 107347749.303 8  83647599.61947  20427591.140                    20427584.020
       863.690         673.006          48.950          47.850



 119614220.464 7  93205884.18246  22761819.880                    22761815.000
      2943.183        2293.392          44.950          38.900



 111299093.147 8  86726570.19347  21179500.760                    21179493.400
      -911.757        -710.459          48.600          47.550



 107811862.354 8  84009244.85848  20515908.820                    20515905.920
     -1134.326        -883.891          50.500          49.050    80508865.727 8
  20515906.200        -847.081          52.850


 115385414.106 8  89910718.97747  21957107.400                    21957103.180
      2534.795        1975.165          48.750          43.750    86164439.463 8
  21957104.980        1892.872          51.350


 125205104.077 7  97562398.23245  23825737.240                    23825730.600
     -3097.984       -2414.018          46.100          34.950



 131244170.065 7 102268165.48945  24974942.000                    24974938.400
     -3556.283       -2771.131          43.800          31.600



 18  6 25 13 15  0.0000000  0 10G07G08G10G16G20G21G26G27G29G31
 135681213.310 7 105725633.62745  25819276.460                    25819273.320
      2905.966        2264.391          43.150          31.900



 133220446.690 6 103808181.19846  25351010.260                    25351010.160
      3206.159        2498.314          38.000          36.650    99482809.694 7
  25351010.680        2394.062          46.600


 129639243.380 6 101017591.17945  24669523.160                    24669523.900
      3555.075        2770.193          41.700          34.700    96808534.322 7
  24669523.600        2654.897          46.700


 107322080.441 8  83627597.91347  20422706.520                    20422699.400
       847.574         660.448          49.100          47.800



 119526060.294 7  93137187.98546  22745043.740                    22745038.440
      2934.443        2286.581          45.800          36.800



 111326631.148 8  86748028.38547  21184740.960                    21184733.560
      -923.957        -719.966          48.700          47.600



 107846136.867 8  84035952.26748  20522431.060                    20522428.160
     -1150.540        -896.524          50.650          48.700    80534460.321 8
  20522428.520        -859.172          52.850


 115309469.849 8  89851541.66947  21942655.660                    21942651.540
      2528.231        1970.052          48.700          44.050    86107727.874 8
  21942653.320        1888.041          51.300


 125298072.775 7  97634841.32445  23843429.000                    23843422.120
     -3099.734       -2415.381          45.800          34.700



 131350835.424 7 102351281.20845  24995239.640                    24995236.180
     -3554.466       -2769.715          43.850          33.900



 18  6 25 13 15 30.0000000  0 10G07G08G10G16G20G21G26G27G29G31
 135594188.462 6 105657822.06945  25802716.300                    25802712.880
      2895.974        2256.600          40.250          33.250



 133124294.471 6 103733257.39446  25332713.160                    25332712.940
      3204.826        2497.268          40.000          36.500    99411007.759 8
  25332713.900        2393.174          48.550


 129532602.921 6 100934494.84345  24649230.060                    24649230.620
      3554.505        2769.749          41.550          35.500    96728900.384 7
  24649230.400        2654.393          47.200


 107296916.630 8  83607989.75747  20417917.980                    20417910.880
       830.276         646.970          48.800          47.600



 119438193.639 7  93068720.50046  22728323.680                    22728317.780
      2923.996        2278.439          45.850          37.250



 111354561.806 8  86769792.54047  21190055.940                    21190048.580
      -937.455        -730.483          48.650          47.700



 107880924.158 8  84063059.23748  20529050.920                    20529048.000
     -1168.186        -910.274          50.650          48.800    80560437.824 8
  20529048.420        -872.286          52.900


 115233746.125 8  89792536.19547  21928245.820                    21928241.800
      2520.319        1963.887          48.350          44.250    86051180.955 8
  21928243.480        1882.168          51.350


 125391118.512 7  97707344.41445  23861135.180                    23861128.240
     -3102.747       -2417.728          45.550          35.000



 131457467.475 7 102434370.94745  25015530.960                    25015527.860
     -3553.899       -2769.279          42.350          35.050



 18  6 25 13 16  0.0000000  0 10G07G08G10G16G20G21G26G27G29G31
 135507458.345 6 105590240.18745  25786212.280                    25786208.640
      2886.275        2249.047          41.150          30.900



 133028171.779 6 103658356.63745  25314421.540                    25314421.380
      3203.439        2496.188          36.950          33.400    99339227.903 7
  25314422.140        2392.224          45.750


 129425971.183 6 100851405.31246  24628938.700                    24628938.980
      3553.887        2769.265          41.350          36.200    96649272.943 7
  24628938.880        2653.999          47.050


 107272262.466 8  83588778.71548  20413226.360                    20413219.300
       813.268         633.715          48.600          48.000



 119350625.888 7  93000485.96746  22711660.200                    22711654.060
      2913.689        2270.411          45.600          38.100



 111382886.747 8  86791863.92447  21195445.980                    21195438.720
      -950.775        -740.864          48.400          47.900



 107916227.043 8  84090567.96648  20535768.880                    20535766.020
     -1185.356        -923.654          50.550          49.150    80586800.358 8
  20535766.400        -885.229          52.850


 115158246.991 8  89733705.72747  21913878.680                    21913874.800
      2512.874        1958.084          48.300          44.100    85994801.775 8
  21913876.440        1876.401          51.450


 125484243.887 7  97779909.57746  23878856.500                    23878849.560
     -3105.363       -2419.764          45.400          36.000



 131564066.521 6 102517434.97945  25035816.320                    25035813.220
     -3552.913       -2768.511          41.550          33.800



 18  6 25 13 16 30.0000000  0 10G07G08G10G16G20G21G26G27G29G31
 135421020.171 6 105522885.78445  25769763.800                    25769759.900
      2876.025        2241.059          41.350          33.550



 132932074.701 5 103583475.97945  25296134.980                    25296134.600
      3202.869        2495.750          34.600          34.300    99267467.212 7
  25296135.540        2391.532          45.300


 129319346.099 7 100768320.98246  24608648.640                    24608648.760
      3553.975        2769.337          42.350          37.050    96569650.495 7
  24608648.700        2653.855          47.100


 107248114.569 8  83569962.18147  20408631.180                    20408624.120
       796.157         620.384          49.050          47.400



 119263355.422 7  92932483.04346  22695053.520                    22695046.960
      2903.989        2262.851          46.550          38.200



 111411599.538 8  86814237.53447  21200909.760                    21200902.720
      -963.635        -750.883          48.550          47.850



 107952040.194 8  84118474.30748  20542583.980                    20542581.020
     -1202.293        -936.852          50.650          48.900    80613543.931 8
  20542581.480        -897.851          52.850


 115082968.456 8  89675047.15947  21899553.520                    21899549.720
      2505.605        1952.422          48.350          43.650    85938587.322 8
  21899551.380        1870.988          51.400


 125577443.218 7  97852532.37146  23896591.880                    23896585.020
     -3107.971       -2421.796          45.800          36.350



 131670625.303 7 102600467.61645  25056093.900                    25056090.700
     -3551.239       -2767.201          42.200          35.100



 18  6 25 13 17  0.0000000  0 10G07G08G10G16G20G21G26G27G29G31
 135334882.476 6 105455765.46745  25753372.180                    25753368.420
      2866.481        2233.621          41.950          33.700



 132836010.477 6 103508620.72745  25277854.440                    25277853.940
      3201.717        2494.843          37.900          32.850    99195730.974 7
  25277855.360        2391.017          45.750


