     2.11           OBSERVATION DATA    G (GPS)             RINEX VERSION / TYPE
teqc  2018Jun8                          20190204 12:52:39UTCPGM / RUN BY / DATE
Linux 2.6.32-573.12.1.x86_64|x86_64|gcc -static|Linux 64|=+ COMMENT
teqc  2018Jun8                          20190204 12:52:39UTCCOMMENT
     2.11           OBSERVATION DATA    M (MIXED)           COMMENT
teqc  2018Jun8                          20190204 12:52:39UTCCOMMENT
teqc  2016Nov7      IGN-RGP             20180625 14:03:34UTCCOMMENT
Linux 2.4.21-27.ELsmp|Opteron|gcc|Linux x86_64|=+           COMMENT
teqc  2016Nov7      IGN-RGP             20180625 14:03:32UTCCOMMENT
   0.139      (antenna height)                              COMMENT
 +48.84444175 (latitude)                                    COMMENT
  +2.42501811 (longitude)                                   COMMENT
0126.237      (elevation)                                   COMMENT
BIT 2 OF LLI FLAGS DATA COLLECTED UNDER A/S CONDITION       COMMENT
10001M007 (COGO code)                                       COMMENT
SMNE                                                        MARKER NAME
10001M007                                                   MARKER NUMBER
Automatic           IGN                                     OBSERVER / AGENCY
5049K72135          TRIMBLE NETR9       4.85                REC # / TYPE / VERS
1441023107          TRM55971.00     NONE                    ANT # / TYPE
  4201792.2950   177945.2380  4779286.6850                  APPROX POSITION XYZ
        0.1390        0.0000        0.0000                  ANTENNA: DELTA H/E/N
     1     1                                                WAVELENGTH FACT L1/2
    21    L1    L2    C1    P1    P2    D1    D2    S1    S2# / TYPES OF OBSERV
          L5    C5    D5    S5    L7    C7    D7    S7    L8# / TYPES OF OBSERV
          C8    D8    S8                                    # / TYPES OF OBSERV
    30.0000                                                 INTERVAL
    18                                                      LEAP SECONDS
 SNR is mapped to RINEX snr flag value [0-9]                COMMENT
  L1 & L2: min(max(int(snr_dBHz/6), 0), 9)                  COMMENT
Forced Modulo Decimation to 30 seconds                      COMMENT
teqc_2018 edited: all GLONASS satellites excluded           COMMENT
teqc_2018 edited: all SBAS satellites excluded              COMMENT
teqc_2018 edited: all Galileo satellites excluded           COMMENT
  2018     6    25    13     0    0.0000000     GPS         TIME OF FIRST OBS
                                                            END OF HEADER
 18  6 25 13  0  0.0000000  0  9G26G21G10G27G29G20G05G16G31
 107040056.648 8  83407929.766 8  20369055.750                    20369062.074
                                        49.300          50.900    79932599.233 9
  20369061.086                          55.000


 110694839.696 7  86255713.17046  21064508.758                    21064511.359
                                        46.700          39.700



 132849360.052 6 103519091.218 6  25280407.688                    25280417.660
                                        38.300          36.900    99205800.190 6
  25280416.668                          40.400


 117626729.301 7  91657284.162 7  22383629.594                    22383635.547
                                        47.500          46.500    87838236.039 8
  22383634.641                          49.000


 122602237.365 7  95534265.172 6  23330432.180                    23330437.180
                                        47.000          40.000



 122320914.809 7  95315081.87244  23276903.383                    23276907.734
                                        43.000          26.900



 132844844.274 6 103515489.994 5  25279528.930                    25279534.727
                                        40.800          35.000



 108281225.467 7  84375006.94846  20605229.469                    20605232.457
                                        47.200          40.200



 128131663.550 7  99842876.081 6  24382652.750                    24382656.637
                                        42.100          36.800



 18  6 25 13  0 30.0000000  0  9G26G21G10G27G29G20G05G16G31
 107059472.155 8  83423058.714 8  20372750.469                    20372757.023
      -655.491        -510.776          51.700          51.300    79947097.813 9
  20372755.801        -489.490          55.200


 110710540.034 8  86267947.20746  21067496.914                    21067499.133
      -530.230        -413.165          49.000          40.300



 132743885.348 6 103436903.348 5  25260336.859                    25260346.145
      3517.071        2740.566          36.600          35.800    99127036.823 6
  25260345.207        2626.379          38.800


 117544864.909 7  91593493.748 7  22368050.906                    22368057.352
      2725.646        2123.881          47.300          46.900    87777103.569 7
  22368056.090        2035.382          47.900


 122692731.004 7  95604779.664 6  23347652.523                    23347657.766
     -3018.050       -2351.735          46.500          39.300



 122225579.070 7  95240794.33644  23258761.273                    23258765.438
      3174.559        2473.677          42.600          26.200



 132921424.304 6 103575162.752 5  25294102.156                    25294107.242
     -2559.013       -1994.047          37.100          33.200



 108241687.431 7  84344198.09746  20597705.781                    20597708.590
      1310.538        1021.197          47.600          40.300



 128238226.753 7  99925912.243 6  24402930.750                    24402935.328
     -3552.787       -2768.410          42.300          37.600



 18  6 25 13  1  0.0000000  0  9G26G21G10G27G29G20G05G16G31
 107079405.492 8  83438591.179 8  20376543.406                    20376550.238
      -672.785        -524.255          50.900          50.900    79961983.091 9
  20376549.195        -502.412          55.200


 110726669.108 7  86280515.32046  21070565.773                    21070568.152
      -544.537        -424.314          46.800          39.700



 132638336.054 6 103354657.297 5  25240252.258                    25240260.438
      3519.494        2742.463          38.800          35.200    99048217.734 6
  25240260.676        2628.188          40.200


 117463198.252 7  91529857.425 7  22352510.391                    22352517.000
      2719.025        2118.720          47.300          46.500    87716118.759 8
  22352516.266        2030.441          49.100


 122783324.368 7  95675371.830 6  23364891.773                    23364896.063
     -3021.392       -2354.338          46.200          39.200



 122130450.675 7  95166668.37244  23240658.336                    23240662.715
      3167.559        2468.227          43.700          26.700



 132998398.738 6 103635142.803 5  25308749.820                    25308755.594
     -2572.131       -2004.270          41.800          33.600



 108202611.594 7  84313749.40446  20590269.727                    20590272.324
      1295.055        1009.132          47.300          40.100



 128344832.919 7 100008981.893 5  24423217.266                    24423221.277
     -3554.232       -2769.532          42.100          35.300



 18  6 25 13  1 30.0000000  0  9G26G21G10G27G29G20G05G16G31
 107099856.912 8  83454527.342 8  20380435.578                    20380442.004
      -690.027        -537.681          50.200          51.000    79977255.243 9
  20380441.016        -515.281          55.200


 110743226.566 8  86293417.24446  21073716.555                    21073719.414
      -558.776        -435.413          48.500          39.200



 132532714.830 6 103272355.155 5  25220151.445                    25220160.438
      3521.875        2744.316          36.400          35.100    98969344.931 6
  25220161.965        2629.968          39.900


 117381730.360 8  91466375.984 7  22337007.656                    22337014.059
      2712.401        2113.559          48.100          46.600    87655282.380 8
  22337012.973        2025.494          48.700


 122874016.718 7  95746041.134 6  23382150.000                    23382155.711
     -3024.650       -2356.872          46.000          39.200



 122035532.646 7  95092706.33844  23222595.688                    23222600.449
      3160.562        2462.771          42.200          26.500



 133075765.348 6 103695428.455 6  25323471.828                    25323477.566
     -2585.144       -2014.401          39.900          36.100



 108163999.540 7  84283662.08746  20582922.227                    20582924.992
      1279.600         997.094          46.800          39.800



 128451479.408 7 100092082.957 5  24443511.141                    24443515.078
     -3555.473       -2770.499          44.800          34.800



 18  6 25 13  2  0.0000000  0  9G26G21G10G27G29G20G05G16G31
 107120826.164 8  83470867.010 8  20384425.375                    20384432.355
      -707.330        -551.165          50.800          51.000    79992914.086 9
  20384431.309        -528.197          55.200


 110760210.483 8  86306651.46846  21076948.844                    21076950.969
      -572.994        -446.491          49.200          39.900



 132427024.043 5 103189998.911 5  25200040.094                    25200048.895
      3524.131        2746.083          35.900          35.900    98890420.208 6
  25200048.547        2631.653          40.200


 117300461.781 7  91403049.849 7  22321542.570                    22321548.902
      2705.730        2108.350          47.800          46.300    87594594.839 8
  22321548.578        2020.506          49.300


 122964807.117 7  95816786.848 6  23399426.711                    23399431.922
     -3027.909       -2359.405          45.900          38.400



 121940827.735 7  95018910.36444  23204574.438                    23204577.891
      3153.380        2457.173          42.500          24.700



 133153521.035 6 103756017.256 5  25338268.688                    25338274.277
     -2598.097       -2024.491          40.200          34.900



 108125852.784 7  84253937.35946  20575663.094                    20575665.645
      1264.033         984.957          46.800          40.200



 128558163.214 7 100175213.073 6  24463812.578                    24463816.570
     -3556.699       -2771.445          45.500          36.300



 18  6 25 13  2 30.0000000  0  9G26G21G10G27G29G20G05G16G31
 107142313.220 8  83487610.160 8  20388514.445                    20388521.250
      -724.553        -564.590          50.500          51.200    80008959.603 9
  20388520.027        -541.065          54.900


 110777620.115 8  86320217.42546  21080261.766                    21080263.898
      -587.134        -457.510          49.200          39.400



 132321266.198 6 103107590.396 6  25179913.516                    25179924.195
      3526.344        2747.794          36.000          36.600    98811445.419 6
  25179923.316        2633.294          40.500


 117219393.298 7  91339879.637 7  22306115.797                    22306122.168
      2699.093        2103.188          47.700          46.700    87534056.724 8
  22306121.082        2015.552          48.900


 123055694.805 7  95887608.360 6  23416722.375                    23416727.188
     -3031.118       -2361.900          44.900          38.800



 121846339.011 6  94945282.83044  23186593.273                    23186597.113
      3146.138        2451.535          41.000          26.000



 133231663.340 7 103816907.363 5  25353138.578                    25353144.207
     -2610.928       -2034.507          42.600          34.800



 108088173.228 7  84224576.66346  20568492.906                    20568495.406
      1248.486         972.851          47.500          40.100



 128664881.647 7 100258370.208 5  24484120.281                    24484124.238
     -3557.788       -2772.313          44.300          34.500



 18  6 25 13  3  0.0000000  0  9G26G21G10G27G29G20G05G16G31
 107164318.301 8  83504756.963 8  20392702.047                    20392708.980
      -741.810        -578.028          49.800          51.400    80025391.961 9
  20392707.582        -553.949          54.900


 110795454.156 7  86334114.08846  21083655.188                    21083657.520
      -601.269        -468.526          46.800          39.700



 132215444.144 6 103025131.807 6  25159777.148                    25159786.531
      3528.424        2749.415          37.200          36.500    98732422.627 6
  25159786.711        2634.847          41.100


 117138525.990 8  91276866.178 7  22290727.750                    22290733.457
      2692.362        2097.945          48.200          46.000    87473668.842 8
  22290732.727        2010.526          49.100


 123146678.871 7  95958504.959 6  23434035.969                    23434041.363
     -3034.296       -2364.381          45.600          39.600



 121752069.568 7  94871826.18244  23168654.828                    23168658.070
      3138.748        2445.778          42.100          25.700



 133310190.179 5 103878097.070 5  25368082.594                    25368087.816
     -2623.738       -2044.467          34.900          31.500



 108050962.093 8  84195580.98046  20561411.672                    20561414.832
      1232.853         960.665          48.800          40.800



 128771632.484 7 100341552.563 6  24504434.688                    24504439.063
     -3558.814       -2773.101          44.100          37.000



 18  6 25 13  3 30.0000000  0  9G26G21G10G27G29G20G05G16G31
 107186841.283 8  83522307.339 8  20396987.766                    20396994.949
      -759.134        -591.529          51.500          50.900    80042211.067 9
  20396993.316        -566.883          54.700


 110813711.587 8  86348340.65846  21087129.414                    21087131.590
      -615.425        -479.545          48.200          39.200



 132109560.318 5 102942625.089 5  25139627.406                    25139636.891
      3530.421        2750.961          34.600          35.800    98653353.729 6
  25139637.012        2636.349          41.400


 117057860.514 7  91214009.984 7  22275377.070                    22275383.441
      2685.579        2092.658          47.400          46.100    87413431.666 8
  22275382.770        2005.463          48.900


 123237758.681 7  96029476.206 6  23451367.719                    23451372.254
     -3037.511       -2366.896          46.000          38.400



 121658022.239 7  94798542.59544  23150758.359                    23150762.125
      3131.292        2439.966          43.100          26.400



 133389098.932 6 103939584.396 5  25383096.969                    25383103.215
     -2636.416       -2054.343          39.200          33.200



 108014221.019 7  84166951.58246  20554420.344                    20554422.848
      1217.087         948.379          47.900          40.400



 128878412.699 7 100424757.813 5  24524753.750                    24524758.344
     -3559.785       -2773.842          44.300          35.200



 18  6 25 13  4  0.0000000  0  9G26G21G10G27G29G20G05G16G31
 107209881.968 8  83540261.104 8  20401372.266                    20401379.246
      -776.359        -604.959          50.300          51.400    80059416.752 9
  20401377.906        -579.746          54.600


 110832390.706 7  86362895.82246  21090684.078                    21090686.004
      -629.425        -490.465          47.200          38.900



 132003617.217 6 102860072.187 6  25119466.852                    25119476.813
      3532.347        2752.478          36.300          36.400    98574240.562 6
  25119476.875        2637.784          41.200


 116977397.563 8  91151311.603 7  22260065.477                    22260071.613
      2678.829        2087.404          48.000          46.400    87353345.726 8
  22260070.707        2000.424          49.000


 123328933.054 7  96100521.133 6  23468717.438                    23468722.898
     -3040.668       -2369.342          44.700          38.900



 121564199.782 7  94725434.23844  23132904.336                    23132908.184
      3123.763        2434.108          42.000          26.400



 133468386.919 6 104001367.303 6  25398185.211                    25398190.547
     -2649.025       -2064.171          40.400          36.600



 107977951.602 7  84138689.69846  20547519.008                    20547521.305
      1201.359         936.126          47.600          40.400



 128985219.689 7 100507983.934 6  24545078.609                    24545083.723
     -3560.628       -2774.510          45.400          36.400



 18  6 25 13  4 30.0000000  0 10G26G21G10G08G27G29G20G05G16G31
 107233440.426 8  83558618.330 8  20405855.266                    20405862.133
      -793.588        -618.383          50.900          50.700    80077009.095 9
  20405860.676        -592.611          54.500


 110851490.710 7  86377778.94346  21094318.461                    21094320.766
      -643.391        -501.342          47.500          39.100



 131897617.491 6 102777475.141 6  25099296.102                    25099306.242
      3534.226        2753.938          38.000          37.700    98495085.089 7
  25099305.480        2639.193          42.200


 135182204.427 5                  25724319.086
      3220.123                          30.100



 116897138.027 7  91088771.746 7  22244792.305                    22244798.836
      2672.064        2082.124          47.100          46.600    87293411.694 8
  22244798.105        1995.370          49.300


 123420201.199 7  96171639.102 6  23486085.516                    23486090.539
     -3043.748       -2371.754          45.000          38.100



 121470605.661 6  94652503.80744  23115093.953                    23115097.426
      3116.125        2428.150          41.300          26.800



 133548051.641 6 104063443.624 5  25413345.898                    25413350.793
     -2661.495       -2073.892          39.700          34.700



 107942155.310 8  84110796.48946  20540706.953                    20540709.676
      1185.584         923.827          48.200          40.800



 129092050.808 7 100591228.855 6  24565408.867                    24565412.707
     -3561.378       -2775.095          45.800          37.600



 18  6 25 13  5  0.0000000  0 10G26G21G10G08G27G29G20G05G16G31
 107257516.607 8  83577378.975 8  20410437.008                    20410443.906
      -810.880        -631.855          51.500          51.400    80094988.045 9
  20410442.566        -605.527          55.000


 110871010.567 8  86392989.22646  21098033.281                    21098035.523
      -657.427        -512.280          49.000          39.600



 131791563.879 6 102694836.133 6  25079114.383                    25079123.285
      3535.946        2755.276          37.100          37.400    98415889.392 7
  25079123.758        2640.476          42.300


 135085618.50415                  25705938.711
      3219.388                          30.100



 116817082.769 7  91026391.069 7  22229558.367                    22229564.434
      2665.221        2076.795          46.900          46.400    87233630.222 8
  22229563.703        1990.264          49.200


 123511562.401 7  96242829.609 6  23503471.031                    23503475.805
     -3046.876       -2374.193          45.400          38.300



 121377242.472 6  94579753.34544  23097328.172                    23097331.863
      3108.342        2422.082          41.400          27.100



 133628090.766 6 104125811.735 5  25428576.391                    25428581.438
     -2673.971       -2083.602          41.600          34.500



 107906833.908 8  84083273.31346  20533985.375                    20533987.805
      1169.706         911.465          48.200          40.900



 129198903.589 7 100674490.678 6  24585742.273                    24585747.141
     -3562.094       -2775.656          46.200          37.300



 18  6 25 13  5 30.0000000  0  9G26G21G10G27G29G20G05G16G31
 107282110.278 8  83596542.871 8  20415117.000                    20415123.746
      -828.130        -645.294          51.200          50.700    80113353.440 9
  20415122.586        -618.404          54.700


 110890948.971 7  86408525.64846  21101827.078                    21101829.547
      -671.331        -523.111          47.800          39.200



 131685458.870 6 102612157.028 6  25058923.188                    25058932.688
      3537.621        2756.587          38.500          37.900    98336655.297 7
  25058932.453        2641.728          42.400


 116737232.506 7  90964170.109 7  22214363.008                    22214369.535
      2658.361        2071.448          47.600          46.600    87174001.821 8
  22214368.859        1985.140          49.000


 123603015.682 7  96314091.862 6  23520874.031                    23520878.777
     -3049.938       -2376.569          44.600          38.600



 121284113.231 6  94507185.16544  23079605.117                    23079609.469
      3100.495        2415.966          41.200          26.400



 133708501.651 6 104188469.672 5  25443878.539                    25443883.137
     -2686.298       -2093.241          38.800          31.200



 107871988.712 8  84056121.22646  20527354.531                    20527357.258
      1153.813         899.070          48.100          40.900



 129305775.047 7 100757767.035 6  24606079.078                    24606083.633
     -3562.671       -2776.106          46.000          37.200



 18  6 25 13  6  0.0000000  0 10G26G21G10G08G27G29G20G05G16G31
 107307221.382 8  83616109.956 8  20419895.477                    20419901.980
      -845.365        -658.726          49.500          50.600    80132105.232 9
  20419900.934        -631.278          54.500


 110911304.590 7  86424387.16846  21105700.297                    21105703.293
      -685.215        -533.928          46.500          38.700



 131579305.041 6 102529439.907 6  25038722.352                    25038732.293
      3539.221        2757.838          37.000          37.700    98257384.738 7
  25038732.469        2642.919          42.100


 134892462.633 5 105111064.560 5  25669187.430                    25669195.371
      3218.263        2507.756          35.000          35.200   100731435.262 6
  25669194.793        2403.231          41.000


 116657588.080 7  90902109.543 7  22199207.563                    22199213.211
      2651.488        2066.092          47.300          45.600    87114527.121 8
  22199212.598        1980.009          48.800


 123694560.509 7  96385425.455 6  23538294.461                    23538299.375
     -3052.931       -2378.907          45.200          39.100



 121191220.880 6  94434801.58344  23061928.453                    23061932.883
      3092.590        2409.814          40.600          26.000



 133789282.265 6 104251415.576 6  25459250.523                    25459255.438
     -2698.580       -2102.769          40.200          37.200



 107837621.253 7  84029341.38446  20520814.672                    20520816.867
      1137.881         886.658          47.100          40.500



 129412662.650 7 100841055.936 6  24626418.734                    24626424.012
     -3563.150       -2776.470          44.500          37.100



 18  6 25 13  6 30.0000000  0 10G26G21G10G08G27G29G20G05G16G31
 107332849.458 8  83636079.874 8  20424772.047                    20424778.762
      -862.581        -672.146          50.300          50.300    80151243.075 9
  20424777.836        -644.138          54.700


 110932075.936 7  86440572.63546  21109653.289                    21109655.832
      -699.049        -544.712          47.000          39.300



 131473104.716 6 102446686.530 6  25018513.406                    25018522.184
      3540.767        2759.040          37.500          37.500    98178079.451 7
  25018521.949        2644.071          42.400


 134795948.517 5 105035844.257 6  25650816.367
      3217.735        2507.328          34.500          38.700   100659345.355 7
  25650825.273        2402.842          43.800


 116578149.986 7  90840209.744 7  22184090.813                    22184096.348
      2644.587        2060.718          46.600          45.300    87055206.505 8
  22184095.789        1974.851          49.000


 123786195.795 7  96456829.496 6  23555733.250                    23555738.285
     -3055.933       -2381.245          44.700          38.500



 121098568.116 6  94362604.69044  23044296.820                    23044302.207
      3084.524        2403.523          40.800          27.500



 133870429.084 5 104314646.787 5  25474691.688                    25474696.941
     -2710.726       -2112.249          35.300          34.700



 107803732.813 7  84002934.82146  20514365.539                    20514368.430
      1121.896         874.199          47.600          40.400



 129519563.510 7 100924355.207 6  24646761.852                    24646766.578
     -3563.540       -2776.777          45.300          37.700



 18  6 25 13  7  0.0000000  0 10G26G21G10G08G27G29G20G05G16G31
 107358994.909 8  83656452.940 8  20429747.516                    20429754.574
      -879.865        -685.605          50.100          50.300    80170767.263 9
  20429753.645        -657.040          54.500


 110953262.516 8  86457081.66346  21113685.055                    21113687.574
      -712.911        -555.517          48.400          39.600



 131366861.118 6 102363899.441 6  24998294.680                    24998304.949
      3542.096        2760.071          36.900          37.300    98098741.841 6
  24998304.719        2645.075          41.500


 134699464.739 5                  25632449.492
      3217.027                          33.100



 116498919.527 7  90778471.761 7  22169013.922                    22169019.953
      2637.621        2055.284          47.100          45.600    86996040.951 8
  22169019.453        1969.647          48.900


 123877920.855 7  96528303.525 6  23573187.117                    23573192.742
     -3058.946       -2383.598          44.700          39.200



 121006158.239 6  94290597.07244  23026711.969                    23026716.641
      3076.405        2397.188          40.900          26.400



 133951940.348 6 104378162.016 5  25490202.914                    25490207.457
     -2722.912       -2121.755          41.300          34.800



 107770325.391 8  83976903.07046  20508008.570                    20508010.855
      1105.798         861.658          48.000          40.400



 129626475.295 7 101007662.969 6  24667105.398                    24667110.957
     -3563.903       -2777.039          43.600          38.800



 18  6 25 13  7 30.0000000  0 10G26G21G10G08G27G29G20G05G16G31
 107385657.540 8  83677229.006 8  20434821.203                    20434827.961
      -897.105        -699.037          50.700          50.400    80190677.664 9
  20434826.684        -669.918          54.500


 110974862.564 8  86473912.87446  21117795.500                    21117798.125
      -726.672        -566.244          48.300          39.100



 131260576.850 6 102281080.657 6  24978069.984                    24978079.184
      3543.393        2761.083          37.600          38.600    98019373.846 7
  24978079.363        2646.033          42.400


 134602962.620 4 104885423.46142  25614085.031                    25614092.340
      3216.425        2506.477          24.600          12.600



 116419897.556 7  90716896.225 7  22153976.242                    22153982.453
      2630.687        2049.885          46.600          46.100    86937031.077 8
  22153981.602        1964.480          49.100


 123969734.622 7  96599846.664 6  23590659.406                    23590664.246
     -3061.904       -2385.892          46.000          39.400



 120913994.431 6  94218781.18744  23009173.695                    23009178.176
      3068.127        2390.748          41.600          27.800



 134033813.793 6 104441959.554 5  25505784.180                    25505787.090
     -2734.896       -2131.089          39.500          31.700



 107737400.609 8  83951247.40246  20501743.148                    20501745.828
      1089.666         849.089          48.100          40.200



 129733395.764 6 101090977.489 6  24687452.633                    24687457.762
     -3564.160       -2777.266          41.200          36.300



 18  6 25 13  8  0.0000000  0 10G26G21G10G08G27G29G20G05G16G31
 107412837.067 8  83698407.853 8  20439993.500                    20440000.238
      -914.314        -712.455          50.800          50.600    80210974.054 9
  20439998.957        -682.768          54.500


 110996875.237 8  86491065.59746  21121984.492                    21121986.719
      -740.401        -576.936          49.500          39.900



 131154254.536 6 102198232.188 6  24957838.078                    24957847.238
      3544.623        2762.044          36.000          38.300    97939977.443 7
  24957846.422        2646.951          42.300


 134506479.664 5 104810248.359 6  25595724.461                    25595732.898
      3215.875        2505.864          33.000          37.400   100443149.005 6
  25595732.965        2401.456          41.500


 116341084.795 7  90655483.725 7  22138979.141                    22138984.895
      2623.713        2044.451          47.100          46.500    86878177.431 8
  22138984.043        1959.265          49.100


 124061636.381 7  96671458.393 6  23608147.797                    23608152.500
     -3064.786       -2388.138          44.800          39.600



 120822079.464 7  94147159.17944  22991682.313                    22991687.777
      3059.806        2384.274          42.100          27.200



 134116046.718 6 104506037.180 5  25521431.422                    25521436.258
     -2746.851       -2140.390          36.700          33.400



 107704959.552 7  83925968.66246  20495569.672                    20495572.449
      1073.560         836.542          47.600          40.000



 129840321.844 6 101174296.352 5  24707800.164                    24707805.754
     -3564.265       -2777.358          41.600          34.900



 18  6 25 13  8 30.0000000  0 10G26G21G10G08G27G29G20G05G16G31
 107440533.294 8  83719989.323 8  20445263.938                    20445270.824
      -931.517        -725.859          50.900          50.400    80231656.293 9
  20445269.605        -695.617          54.500


 111019299.045 8  86508538.68946  21126251.656                    21126254.195
      -754.074        -587.592          48.500          39.700



 131047896.728 6 102115356.075 6  24937598.469                    24937608.109
      3545.794        2762.958          37.700          38.300    97860554.524 7
  24937607.699        2647.827          42.700


 134410015.865 4 104735081.78014  25577368.336                    25577376.258
      3215.074                          28.900          27.600   100371114.46115
  25577375.625                          32.400


 116262482.071 7  90594234.874 7  22124021.125                    22124027.188
      2616.719        2039.006          47.200          46.400    86819480.629 8
  22124026.223        1954.049          48.500


 124153625.330 7  96743138.039 6  23625653.086                    23625657.199
     -3067.694       -2390.411          44.700          39.400



 120730416.186 7  94075733.30644  22974240.297                    22974244.680
      3051.337        2377.663          42.200          27.000



 134198636.332 6 104570392.568 5  25537147.797                    25537152.441
     -2758.667       -2149.612          38.100          33.600



 107673004.128 8  83901068.34046  20489489.055                    20489491.070
      1057.349         823.906          48.000          40.100



 129947250.921 6 101257617.620 5  24728147.508                    24728153.449
     -3564.310       -2777.381          40.600          35.500



 18  6 25 13  9  0.0000000  0 10G26G21G10G08G27G29G20G05G16G31
 107468745.721 8  83741973.017 8  20450632.797                    20450639.465
      -948.679        -739.233          50.000          50.900    80252724.000 9
  20450638.422        -708.430          54.500


 111042132.457 8  86526330.96146  21130596.742                    21130599.277
      -767.637        -598.157          48.900          39.900



 130941505.855 6 102032454.185 6  24917352.500                    24917362.566
      3546.938        2763.847          37.400          38.100    97781106.883 7
  24917361.746        2648.685          42.500


 134313572.060 5 104659930.677 6  25559016.398                    25559023.766
      3214.521        2504.827          32.900          36.300   100299094.558 7
  25559023.953        2400.458          42.100


 116184089.899 7  90533150.093 7  22109103.219                    22109109.758
      2609.710        2033.545          47.500          45.400    86760941.058 7
  22109108.379        1948.809          47.700


 124245700.819 7  96814885.120 6  23643173.742                    23643178.520
     -3070.505       -2392.597          45.300          38.900



 120639007.544 7  94004505.86244  22956845.844                    22956850.180
      3042.840        2371.041          42.500          28.100



 134281579.807 6 104635023.937 5  25552931.766                    25552936.047
     -2770.462       -2158.806          39.400          34.400



 107641535.117 8  83876547.04046  20483500.273                    20483503.102
      1041.178         811.307          48.400          40.600



 130054180.135 6 101340938.970 5  24748495.617                    24748501.336
     -3564.248       -2777.330          39.700          34.900



 18  6 25 13  9 30.0000000  0 10G26G21G10G08G27G29G20G05G16G31
 107497474.833 8  83764359.328 8  20456099.547                    20456106.391
      -965.916        -752.666          51.200          50.800    80274177.542 9
  20456105.230        -721.298          54.600


 111065374.959 8  86544442.00646  21135019.313                    21135022.219
      -781.281        -608.795          48.400          39.200



 130835085.311 6 101949529.191 6  24897101.891                    24897111.445
      3547.853        2764.560          38.800          38.200    97701637.124 7
  24897111.156        2649.368          43.500


 134217149.257 6 104584796.175 5  25540667.695                    25540674.645
      3213.828        2504.293          37.900          33.200   100227090.719 6
  25540675.180        2399.949          39.700


 116105909.786 7  90472230.558 7  22094226.898                    22094232.207
      2602.601        2027.996          47.300          45.800    86702559.832 7
  22094230.887        1943.498          47.500


 124337862.211 7  96886699.155 6  23660712.133                    23660716.328
     -3073.399       -2394.855          44.900          39.600



 120547856.694 7  93933479.30244  22939500.180                    22939504.867
      3034.208        2364.317          42.400          27.500



 134364875.352 6 104699929.514 5  25568782.320                    25568786.488
     -2782.141       -2167.901          39.200          30.600



 107610554.554 7  83852406.34746  20477604.766                    20477607.613
      1024.849         798.582          46.900          40.500



 130161107.675 6 101424258.983 5  24768843.367                    24768849.621
     -3564.172       -2777.276          39.200          34.200



 18  6 25 13 10  0.0000000  0 10G26G21G10G08G27G29G20G05G16G31
 107526719.774 8  83787147.576 8  20461664.813                    20461671.563
      -983.143        -766.086          50.300          50.000    80296016.282 9
  20461670.754        -734.165          54.800


 111089024.543 8  86562870.25446  21139520.156                    21139522.570
      -794.880        -619.384          48.700          39.400



 130728637.241 6 101866582.751 6  24876846.023                    24876854.879
      3548.646        2765.174          38.900          38.900    97622146.815 7
  24876853.828        2649.958          43.000


 134120747.436 5 104509677.825 5  25522322.352
      3213.034        2503.669          34.000          30.800   100155102.326 5
  25522328.395        2399.337          34.100


 116027941.995 8  90411476.452 7  22079389.414                    22079395.461
      2595.499        2022.465          48.200          47.200    86644337.149 8
  22079394.082        1938.195          48.300


 124430108.310 7  96958579.162 6  23678265.641                    23678270.355
     -3076.233       -2397.059          44.100          38.400



 120456966.401 7  93862655.74944  22922203.578                    22922208.734
      3025.477        2357.514          42.600          28.500



 134448519.955 6 104765107.092 5  25584699.313                    25584703.316
     -2793.738       -2176.905          39.800          34.000



 107580063.647 7  83828647.20146  20471802.938                    20471805.371
      1008.441         785.794          47.300          40.900



 130268030.360 6 101507575.190 5  24789190.125                    24789196.488
     -3563.992       -2777.121          39.600          33.600



 18  6 25 13 10 30.0000000  0 10G26G21G10G08G27G29G20G05G16G31
 107556480.600 8  83810337.819 8  20467328.133                    20467334.840
     -1000.291        -779.451          51.100          50.300    80318240.266 9
  20467333.793        -746.977          54.700


 111113080.636 8  86581615.26446  21144097.633                    21144100.398
      -808.362        -629.896          48.700          39.400



 130622164.466 6 101783617.097 6  24856583.328                    24856593.797
      3549.465        2765.825          37.500          37.500    97542638.046 7
  24856592.688        2650.573          43.000


 134024367.388 5 104434576.643 5  25503982.727                    25503990.090
      3212.384        2503.195          34.700          34.900   100083130.380 6
  25503990.336        2398.885          40.900


 115950187.637 8  90350888.657 7  22064593.367                    22064599.355
      2588.401        2016.938          49.500          46.800    86586273.848 8
  22064598.273        1932.900          48.600


 124522438.525 7  97030524.738 6  23695835.281                    23695840.316
     -3078.982       -2399.207          44.500          38.400



 120366339.768 6  93792037.65444  22904957.656                    22904962.852
      3016.610        2350.594          41.600          28.100



 134532511.475 6 104830555.091 5  25600680.984
     -2805.264       -2185.912          36.800          34.500



 107550063.875 7  83805270.76146  20466093.906                    20466096.582
       992.120         773.078          46.600          39.900



 130374945.699 6 101590885.691 5  24809535.875                    24809541.496
     -3563.691       -2776.888          39.300          35.600



 18  6 25 13 11  0.0000000  0 10G26G21G10G08G27G29G20G05G16G31
 107586756.804 8  83833929.656 8  20473089.391                    20473095.988
     -1017.500        -792.859          49.400          50.200    80340849.104 9
  20473095.063        -759.818          54.700


 111137541.348 8  86600675.56546  21148752.219                    21148754.656
      -821.802        -640.367          49.300          39.500



 130515669.547 6 101700634.145 6  24836318.195                    24836328.348
      3550.187        2766.362          37.600          38.000    97463112.779 7
  24836327.938        2651.099          43.700


 133928008.798 6 104359492.066 5  25485646.359
      3211.609        2502.544          36.400          30.700   100011174.324 6
  25485653.395        2398.272          40.400


 115872647.321 8  90290467.662 7  22049837.820                    22049843.902
      2581.252        2011.369          48.900          47.300    86528370.393 8
  22049842.816        1927.555          48.400


 124614852.063 7  97102535.222 6  23713421.422                    23713426.039
     -3081.771       -2401.379          44.900          39.200



 120275979.648 7  93721627.24144  22887762.555                    22887768.246
      3007.666        2343.642          42.400          28.500



 134616847.198 6 104896271.244 5  25616731.164                    25616734.863
     -2816.633       -2194.771          39.000          33.600



 107520556.630 8  83782278.10046  20460478.930                    20460481.344
       975.642         760.243          48.400          40.600



 130481850.805 6 101674188.285 6  24829878.281                    24829885.008
     -3563.266       -2776.573          40.800          36.200



 18  6 25 13 11 30.0000000  0 11G26G21G10G08G27G29G20G07G05G16G31
 107617548.481 8  83857923.155 8  20478948.742                    20478955.563
     -1034.654        -806.223          50.600          50.900    80363842.883 9
  20478954.578        -772.632          54.500


 111162405.574 8  86620050.28446  21153483.828                    21153486.180
      -835.260        -650.847          48.500          40.600



 130409155.727 6 101617636.479 6  24816050.172                    24816059.215
      3550.781        2766.836          39.400          38.800    97383573.358 7
  24816058.516        2651.562          42.800


 133831673.344 6 104284425.510 5  25467313.516                    25467322.305
      3210.879        2502.005          37.900          35.500    99939235.542 7
  25467323.137        2397.738          42.800


 115795322.285 8  90230214.416 7  22035123.438                    22035129.613
      2574.056        2005.760          50.000          46.500    86470627.708 8
  22035128.648        1922.182          48.500


 124707348.211 7  97174610.093 6  23731022.703                    23731026.879
     -3084.512       -2403.514          44.300          39.000



 120185889.385 7  93651427.09444  22870619.539                    22870624.117
      2998.651        2336.606          42.500          29.100



 136273757.687 5 106187377.666 4  25932038.539
      2974.411        2317.727          31.900          29.900



 134701422.462 6                  25632845.031
     -2828.034                          36.200



 107491543.663 7  83759670.59246  20454958.180                    20454961.176
       959.158         747.395          47.800          40.600



 130588743.803 6 101757481.364 6  24850220.328                    24850226.641
     -3562.852       -2776.245          40.800          36.400



 18  6 25 13 12  0.0000000  0 11G26G21G10G08G27G29G20G07G05G16G31
 107648854.684 8  83882317.593 8  20484906.578                    20484912.965
     -1051.829        -819.604          50.800          50.700    80387220.876 9
  20484912.152        -785.455          54.300


 111187671.859 8  86639738.30846  21158292.125                    21158294.633
      -848.686        -661.315          49.000          40.300



 130302624.915 6 101534625.581 6  24795777.508                    24795786.848
      3551.278        2767.228          39.700          38.800    97304021.269 7
  24795786.617        2651.927          44.100


 133735360.484 5 104209376.570 5  25448985.461                    25448994.301
      3210.044        2501.342          35.400          35.800    99867313.594 6
  25448993.898        2397.113          41.600


 115718212.715 8  90170129.054 7  22020449.703                    22020456.160
      2566.837        2000.134          49.300          47.200    86413045.899 8
  22020455.191        1916.795          48.400


 124799925.950 7  97246748.503 6  23748638.875                    23748644.113
     -3087.239       -2405.634          44.100          39.200



 120096071.097 6  93581438.89544  22853528.289                    22853531.957
      2989.545        2329.510          41.900          29.100



 136184663.090 5 106117953.293 5  25915085.414
      2965.457        2310.756          35.500          34.800



 134786439.196 6 105028472.306 5  25649022.484                    25649026.410
     -2839.333       -2212.483          36.300          32.300



 107463025.633 7  83737448.75746  20449530.898                    20449533.930
       942.610         734.504          47.200          40.700



 130695621.274 6 101840762.390 6  24870558.133                    24870564.742
     -3562.319       -2775.826          38.900          38.000



 18  6 25 13 12 30.0000000  0 11G26G21G10G08G27G29G20G07G05G16G31
 107680675.784 8  83907113.245 8  20490961.719                    20490968.145
     -1068.963        -832.952          51.300          50.200    80410983.374 9
  20490967.273        -798.251          54.400


 111213339.792 8  86659739.29646  21163176.406                    21163178.613
      -862.015        -671.706          49.000          39.800



 130196080.521 6 101451604.088 6  24775503.148                    24775512.258
      3551.724        2767.570          40.300          39.200    97224459.059 7
  24775512.027        2652.254          43.800


 133639071.451 6 104134346.212 5  25430663.133                    25430670.867
      3209.280        2500.744          37.900          35.700    99795409.501 7
  25430671.168        2396.537          44.600


 115641320.094 8  90110212.762 7  22005817.875                    22005823.508
      2559.603        1994.497          49.800          46.700    86355626.119 8
  22005822.598        1911.391          48.500


 124892584.971 7  97318950.272 6  23766271.938                    23766276.570
     -3089.910       -2407.720          43.000          39.200



 120006528.459 7  93511665.47944  22836488.727                    22836492.262
      2980.299        2322.304          42.900          29.600



 136095842.84314                  25898182.164
      2956.187                          28.600



 134871794.389 6 105094980.018 5  25665263.883
     -2850.486       -2221.168          37.000          33.100



 107435004.853 8  83715614.38346  20444199.453                    20444201.918
       926.011         721.566          48.400          40.500



 130802481.353 6 101924029.830 6  24890893.648                    24890900.875
     -3561.681       -2775.319          38.800          36.600



 18  6 25 13 13  0.0000000  0 10G26G21G10G08G27G29G20G05G16G31
 107713010.987 8  83932309.488 8  20497114.711                    20497120.938
     -1086.085        -846.298          49.600          50.100    80435129.773 9
  20497119.949        -811.037          54.100


 111239407.181 8  86680051.54846  21168136.930                    21168138.992
      -875.299        -682.049          49.300          39.900



 130089524.909 6 101368573.890 6  24755225.734                    24755235.207
      3552.007        2767.791          41.000          38.700    97144888.462 7
  24755234.684        2652.464          43.700


 133542806.317 5 104059334.449 5  25412343.641                    25412351.449
      3208.427        2500.063          34.800          32.900    99723523.280 6
  25412352.633        2395.893          41.500


 115564644.864 8  90050465.839 7  21991226.844                    21991233.027
      2552.340        1988.842          50.200          47.400    86298368.661 8
  21991232.586        1905.967          49.700


 124985323.946 7  97391214.347 6  23783919.195                    23783924.500
     -3092.558       -2409.779          44.100          38.300



 119917264.036 7  93442108.83844  22819501.797                    22819505.855
      2970.989        2315.052          42.700          29.900



 134957482.20915                  25681570.969
     -2861.845                          30.500



 107407482.068 7  83694168.06146  20438961.586                    20438964.164
       909.381         708.607          47.600          40.600



 130909320.853 6 102007281.273 6  24911223.742                    24911231.711
     -3560.942       -2774.761          38.200          37.000



 18  6 25 13 13 30.0000000  0 10G26G21G10G08G27G29G20G07G16G31
 107745859.918 8  83957906.056 8  20503365.719                    20503371.664
     -1103.217        -859.653          50.500          50.200    80459659.809 9
  20503370.676        -823.834          54.300


 111265872.440 8  86700673.83346  21173172.750                    21173175.754
      -888.558        -692.380          49.100          40.200



 129982960.740 6 101285537.007 6  24734946.836                    24734956.445
      3552.237        2767.971          39.500          38.800    97065311.499 7
  24734956.621        2652.640          43.800


 133446565.882 5 103984341.930 5  25394030.117                    25394037.992
      3207.576        2499.410          35.900          33.700    99651655.440 6
  25394039.469        2395.276          41.300


 115488187.814 8  89990888.953 7  21976677.719                    21976683.473
      2545.056        1983.159          49.500          47.700    86241274.148 8
  21976682.914        1900.522          49.500


 125078142.276 7  97463540.257 6  23801582.563                    23801586.402
     -3095.203       -2411.839          45.100          38.800



 119828280.668 7  93372771.18345  22802569.227                    22802572.656
      2961.558        2307.702          43.800          30.200



 135919031.572 6 105910979.876 6  25864536.203                    25864543.270
      2937.686        2289.115          36.800          36.100



 107380458.534 7  83673110.77046  20433819.508                    20433821.863
       892.733         695.640          47.100          40.000



 131016137.538 6 102090514.921 6  24931550.734                    24931558.375
     -3560.156       -2774.137          38.300          37.200



 18  6 25 13 14  0.0000000  0 11G26G21G10G08G27G29G20G07G05G16G31
 107779222.482 8  83983902.838 8  20509714.430                    20509720.941
     -1120.394        -873.038          49.700          50.600    80484573.385 9
  20509719.660        -836.653          54.000


 111292734.633 7  86721605.41046  21178284.680                    21178287.063
      -901.830        -702.724          47.900          40.200



 129876390.988 6 101202495.791 6  24714667.625                    24714677.074
      3552.348        2768.062          40.700          39.200    96985730.352 7
  24714676.961        2652.722          43.600


 133350351.283 6 103909369.534 5  25375721.414                    25375727.941
      3206.672        2498.716          36.100          33.300    99579806.957 6
  25375730.004        2394.582          41.800


 115411950.120 8  89931482.987 7  21962170.031                    21962176.105
      2537.656        1977.393          49.100          47.700    86184343.441 8
  21962175.781        1894.999          49.900


 125171039.397 7  97535927.562 6  23819259.430                    23819265.270
     -3097.873       -2413.932          43.400          39.500



 119739581.580 7  93303655.05445  22785689.844                    22785693.367
      2951.993        2300.255          43.500          30.900



 135831045.878 5 105842419.606 6  25847793.500                    25847799.961
      2928.229        2281.717          35.700          36.600



 135129907.319 5                  25714371.234
     -2883.529                          34.700



 107353936.393 7  83652444.17146  20428772.141                    20428774.820
       875.950         682.559          46.800          40.600



 131122929.034 6 102173728.914 6  24951873.266                    24951879.875
     -3559.314       -2773.468          40.300          37.900



 18  6 25 13 14 30.0000000  0 11G26G21G10G08G27G29G20G07G05G16G31
 107813097.906 8  84010299.255 8  20516160.797                    20516167.445
     -1137.464        -886.336          50.500          49.800    80509869.952 9
  20516166.164        -849.408          54.100


 111319992.131 8  86742845.03546  21183471.891                    21183474.160
      -914.944        -712.945          49.000          40.100



 129769818.022 6 101119452.056 6  24694387.398                    24694396.680
      3552.392        2768.093          40.400          38.700    96906146.815 7
  24694396.684        2652.751          44.200


 133254162.005 5 103834416.865 5  25357416.180                    25357422.797
      3205.884        2498.084          34.800          32.900    99507977.290 6
  25357426.379        2393.998          40.500


 115335932.139 8  89872248.212 8  21947704.094                    21947710.258
      2530.380        1971.721          48.400          48.200    86127576.786 8
  21947709.875        1889.565          50.200


 125264014.131 7  97608375.324 6  23836951.859                    23836958.418
     -3100.444       -2415.929          43.000          39.400



 119651169.497 7  93234762.56545  22768866.484                    22768869.711
      2942.421        2292.798          43.900          30.700



 135743343.740 5 105774080.343 5  25831103.305                    25831109.727
      2918.820        2274.387          33.900          30.200



 135216582.394 5 105363596.103 4  25730864.492
     -2894.474       -2255.417          34.000          24.300



 107327915.957 8  83632168.51346  20423820.930                    20423822.965
       859.254         669.546          48.000          40.800



 131229692.174 6 102256920.834 6  24972190.273                    24972196.348
     -3558.309       -2772.709          39.800          38.900



 18  6 25 13 15  0.0000000  0 10G26G21G10G08G27G29G20G07G16G31
 107847486.437 8  84037095.504 8  20522704.750                    20522711.234
     -1154.519        -899.627          50.400          50.200    80535549.687 9
  20522710.191        -862.142          54.600


 111347644.237 8  86764392.12646  21188733.406                    21188735.754
      -928.065        -723.166          48.000          40.800



 129663245.281 6 101036408.490 6  24674107.172                    24674116.211
      3552.415        2768.114          40.900          37.900    96826563.422 7
  24674115.453        2652.778          43.100


 133158000.303 6 103759485.768 5  25339117.102                    25339124.969
      3204.928        2497.347          37.600          34.200    99436168.291 7
  25339126.563        2393.284          43.600


 115260135.419 8  89813185.860 7  21933280.438                    21933286.480
      2523.005        1965.975          49.300          47.300    86070975.376 8
  21933286.043        1884.059          50.500


 125357066.319 7  97680883.486 6  23854659.094                    23854664.535
     -3102.959       -2417.886          42.300          39.100



 119563047.836 7  93166096.36845  22752096.688                    22752101.316
      2932.705        2285.219          43.200          30.600



 135655928.316 6 105705964.350 6  25814469.797                    25814476.109
      2909.237        2266.952          39.000          36.800



 107302399.332 7  83612285.43046  20418965.305                    20418967.570
       842.453         656.456          47.200          40.900



 131336424.852 6 102340088.958 6  24992500.070                    24992506.605
     -3557.247       -2771.867          40.800          37.700



 18  6 25 13 15 30.0000000  0 10G26G21G10G08G27G29G20G07G16G31
 107882387.401 8  84064291.047 8  20529345.953                    20529352.551
     -1171.594        -912.929          50.600          49.800    80561612.073 9
  20529351.625        -874.893          54.500


 111375689.708 8  86786245.74546  21194070.633                    21194072.754
      -941.177        -733.384          48.800          40.200



 129556675.128 6 100953366.922 6  24653827.922                    24653835.949
      3552.304        2768.029          41.300          38.400    96746981.975 7
  24653836.188        2652.691          43.800


 133061865.185 6 103684575.257 5  25320823.648                    25320830.555
      3204.035        2496.648          37.500          33.100    99364379.170 6
  25320831.680        2392.624          39.600


 115184560.550 8  89754296.385 7  21918898.883                    21918904.809
      2515.595        1960.208          49.100          47.100    86014539.618 8
  21918904.660        1878.535          50.900


 125450194.970 7  97753451.190 6  23872381.266                    23872386.301
     -3105.510       -2419.876          42.000          38.100



 119475219.617 7  93097658.84645  22735383.258                    22735387.641
      2922.887        2277.575          43.700          31.900



 135568800.796 6 105638072.863 6  25797890.047                    25797895.082
      2899.576        2259.404          41.400          37.200



 107277387.722 7  83592795.86146  20414205.664                    20414207.992
       825.571         643.304          47.500          40.200



 131443124.911 6 102423231.681 6  25012803.492                    25012811.848
     -3556.106       -2770.991          40.300          37.900



 18  6 25 13 16  0.0000000  0 10G26G21G10G08G27G29G20G07G16G31
 107917799.932 8  84091885.207 8  20536085.078                    20536091.246
     -1188.644        -926.215          50.300          49.800    80588056.481 9
  20536090.613        -887.624          54.600


 111404126.551 8  86808404.32146  21199482.109                    21199484.230
      -954.180        -743.518          48.300          40.300



 129450109.977 6 100870329.314 6  24633549.063                    24633557.613
      3552.046        2767.814          41.800          38.700    96667404.267 7
  24633557.559        2652.495          43.800


 132965757.659 6 103609686.289 6  25302535.367                    25302542.266
      3203.135        2495.953          38.300          36.300    99292610.524 6
  25302542.918        2391.941          40.600


 115109207.939 8  89695580.077 7  21904559.711                    21904566.070
      2508.170        1954.418          48.300          47.300    85958269.840 8
  21904566.156        1872.986          50.700


 125543399.098 7  97826077.706 6  23890117.734                    23890122.770
     -3108.028       -2421.836          42.600          39.100



 119387686.673 7  93029451.40345  22718726.242                    22718731.090
      2912.991        2269.862          43.700          31.400



 135481963.898 6 105570407.705 5  25781364.953                    25781370.820
      2889.808        2251.802          37.100          33.000



 107252882.059 8  83573700.53646  20409542.625                    20409544.625
       808.698         630.158          48.200          40.900



 131549788.997 6 102506346.387 6  25033102.063                    25033109.332
     -3554.867       -2770.023          40.000          39.100



 18  6 25 13 16 30.0000000  0 10G26G21G10G08G27G29G20G07G16G31
 107953723.665 8  84119877.712 8  20542921.070                    20542927.539
     -1205.682        -939.494          50.900          50.900    80614882.623 9
  20542926.730        -900.345          55.000


 111432953.296 8  86830866.72146  21204967.352                    21204969.887
      -967.173        -753.645          48.300          40.400



 129343552.743 6 100787297.812 6  24613271.625                    24613279.828
      3551.763        2767.602          40.800          38.100    96587832.470 7
  24613279.828        2652.282          43.800


 132869678.203 6 103534819.252 5  25284251.977                    25284259.195
      3202.177        2495.208          39.000          34.900    99220862.951 6
  25284260.027        2391.246          41.300


 115034078.542 8  89637037.714 7  21890263.453                    21890269.613
      2500.698        1948.596          48.400          47.900    85902166.755 8
  21890269.699        1867.405          50.900


 125636677.985 6  97898762.513 6  23907867.586                    23907873.152
     -3110.503       -2423.768          41.800          39.200



